[{"city": "Belleville", "state": "IL", "location": {"city": "Belleville", "full_address": "Belleville, IL, USA", "state": "Illinois", "state_short": "IL", "longitude": -89.9839935, "latitude": 38.5200504, "city_short": "Belleville"}, "id": 30, "title": "Southwestern Ill College-Bell"}, {"city": "New york", "state": "NY", "location": {"city": "New York", "full_address": "New York, NY, USA", "state": "New York", "state_short": "NY", "longitude": -74.0059413, "latitude": 40.7127837, "city_short": "NY"}, "id": 52, "title": "Lab Institute of Merchandising"}, {"city": "Burton", "state": "OH", "location": {"city": "Burton", "full_address": "Burton, OH 44021, USA", "state": "Ohio", "state_short": "OH", "longitude": -81.1450995, "latitude": 41.47060889999999, "city_short": "Burton", "zip_code": "44021"}, "id": 76, "title": "Kent State University-Geauga Campus"}, {"city": "Lombard", "state": "IL", "location": {"city": "Lombard", "full_address": "Lombard, IL, USA", "state": "Illinois", "state_short": "IL", "longitude": -88.00784349999999, "latitude": 41.8800296, "city_short": "Lombard"}, "id": 99, "title": "Northern Baptist Theo Seminary"}, {"city": "Kosciusko", "state": "MS", "location": {"city": "Kosciusko", "full_address": "Kosciusko, MS 39090, USA", "state": "Mississippi", "state_short": "MS", "longitude": -89.58757639999999, "latitude": 33.0576295, "city_short": "Kosciusko", "zip_code": "39090"}, "id": 126, "title": "Magnolia Bible College"}, {"city": "Springfield", "state": "MO", "location": {"city": "Springfield", "full_address": "Springfield, MO, USA", "state": "Missouri", "state_short": "MO", "longitude": -93.29229889999999, "latitude": 37.2089572, "city_short": "Springfield"}, "id": 168, "title": "Baptist Bible College And Graduate School"}, {"city": "Knoxville", "state": "TN", "location": {"city": "Knoxville", "full_address": "Knoxville, TN, USA", "state": "Tennessee", "state_short": "TN", "longitude": -83.9207392, "latitude": 35.9606384, "city_short": "Knoxville"}, "id": 173, "title": "Pellissippi St Tech Community College"}, {"city": "Morrisville", "state": "NY", "location": {"city": "Morrisville", "full_address": "Morrisville, NY 13408, USA", "state": "New York", "state_short": "NY", "longitude": -75.6401825, "latitude": 42.8986791, "city_short": "Morrisville", "zip_code": "13408"}, "id": 192, "title": "SUNY Morrisville College of Technology"}, {"city": "Eldon", "state": "MO", "location": {"city": "Eldon", "full_address": "Eldon, MO 65026, USA", "state": "Missouri", "state_short": "MO", "longitude": -92.58157589999999, "latitude": 38.34836360000001, "city_short": "Eldon", "zip_code": "65026"}, "id": 194, "title": "Eldon Career Center"}, {"city": "Opp", "state": "AL", "id": 197, "title": "Lb Wallace Cmty Clg-Macarthur"}, {"city": "Atlanta", "state": "GA", "location": {"city": "Atlanta", "full_address": "Atlanta, GA, USA", "state": "Georgia", "state_short": "GA", "longitude": -84.3879824, "latitude": 33.7489954, "city_short": "Atlanta"}, "id": 220, "title": "Brown College Of Court Reporting And Medical Transcription"}, {"city": "Ellsworth afb", "state": "SD", "location": {"city": "Ellsworth Air Force Base", "full_address": "Ellsworth Air Force Base, SD, USA", "state": "South Dakota", "state_short": "SD", "longitude": -103.0748767, "latitude": 44.1463938, "city_short": "Ellsworth AFB"}, "id": 223, "title": "National American University-Ellsworth Afb Extension"}, {"city": "Marianna", "state": "FL", "location": {"city": "Marianna", "full_address": "Marianna, FL, USA", "state": "Florida", "state_short": "FL", "longitude": -85.2268735, "latitude": 30.7743596, "city_short": "Marianna"}, "id": 233, "title": "Chipola Junior College"}, {"city": "Boston", "state": "MA", "id": 290, "title": "Berklee College of Music"}, {"city": "Miami", "state": "FL", "location": {"city": "Miami", "full_address": "Miami, FL, USA", "state": "Florida", "state_short": "FL", "longitude": -80.1917902, "latitude": 25.7616798, "city_short": "Miami"}, "id": 325, "title": "Carlos Albizu University-Miami Campus"}, {"city": "Griffin", "state": "GA", "location": {"city": "Griffin", "full_address": "Griffin, GA, USA", "state": "Georgia", "state_short": "GA", "longitude": -84.2640904, "latitude": 33.2467807, "city_short": "Griffin"}, "id": 330, "title": "Griffin Technical College"}, {"city": "Henderson", "state": "NV", "location": {"city": "Henderson", "full_address": "Henderson, NV, USA", "state": "Nevada", "state_short": "NV", "longitude": -114.9817213, "latitude": 36.0395247, "city_short": "Henderson"}, "id": 388, "title": "Devry University-Henderson Ctr"}, {"city": "Phoenix", "state": "AZ", "location": {"city": "Phoenix", "full_address": "Phoenix, AZ, USA", "state": "Arizona", "state_short": "AZ", "longitude": -112.0740373, "latitude": 33.4483771, "city_short": "Phoenix"}, "id": 392, "title": "Apollo College-Westside"}, {"city": "Mobile", "state": "AL", "location": {"city": "Mobile", "full_address": "Mobile, AL, USA", "state": "Alabama", "state_short": "AL", "longitude": -88.0398912, "latitude": 30.6953657, "city_short": "Mobile"}, "id": 393, "title": "Bishop State Community College-Main"}, {"city": "Reading", "state": "PA", "location": {"city": "Reading", "full_address": "Reading, PA, USA", "state": "Pennsylvania", "state_short": "PA", "longitude": -75.9268747, "latitude": 40.3356483, "city_short": "Reading"}, "id": 458, "title": "Penn State University - Berks-Leigh V College"}, {"city": "Alexander city", "state": "AL", "location": {"city": "Alexander City", "full_address": "Alexander City, AL, USA", "state": "Alabama", "state_short": "AL", "longitude": -85.9538532, "latitude": 32.944012, "city_short": "Alexander City"}, "id": 538, "title": "Central Alabama Community College-Alex"}, {"city": "Santa fe", "state": "NM", "location": {"city": "Santa Fe", "full_address": "Santa Fe, NM, USA", "state": "New Mexico", "state_short": "NM", "longitude": -105.937799, "latitude": 35.6869752, "city_short": "Santa Fe"}, "id": 548, "title": "Institute Of American Indian And Alaska Native Culture"}, {"city": "Mancos", "state": "CO", "location": {"city": "Mancos", "full_address": "Mancos, CO 81328, USA", "state": "Colorado", "state_short": "CO", "longitude": -108.2892487, "latitude": 37.344996, "city_short": "Mancos", "zip_code": "81328"}, "id": 550, "title": "San Juan Basin Technical College"}, {"city": "Los angeles", "state": "CA", "id": 557, "title": "Musicians Institute"}, {"city": "Arlington", "state": "TX", "location": {"city": "Arlington", "full_address": "Arlington, TX, USA", "state": "Texas", "state_short": "TX", "longitude": -97.10806559999999, "latitude": 32.735687, "city_short": "Arlington"}, "id": 573, "title": "Iverson Business School And Court Reporting"}, {"city": "Quincy", "state": "CA", "location": {"city": "Quincy", "full_address": "Quincy, CA 95971, USA", "state": "California", "state_short": "CA", "longitude": -120.9471764, "latitude": 39.9368363, "city_short": "Quincy", "zip_code": "95971"}, "id": 577, "title": "Feather River Community College District"}, {"city": "Kansas city", "state": "MO", "location": {"city": "Kansas City", "full_address": "Kansas City, MO, USA", "state": "Missouri", "state_short": "MO", "longitude": -94.5785667, "latitude": 39.0997265, "city_short": "KCMO"}, "id": 589, "title": "Calvary Bible College And Theological Seminary"}, {"city": "Brewton", "state": "AL", "location": {"city": "Brewton", "full_address": "Brewton, AL 36426, USA", "state": "Alabama", "state_short": "AL", "longitude": -87.0721918, "latitude": 31.1051779, "city_short": "Brewton", "zip_code": "36426"}, "id": 608, "title": "Jefferson Davis Community College-Brew"}, {"city": "Waterbury", "state": "CT", "location": {"city": "Waterbury", "full_address": "Waterbury, CT, USA", "state": "Connecticut", "state_short": "CT", "longitude": -73.0514965, "latitude": 41.5581525, "city_short": "Waterbury"}, "id": 639, "title": "University Of Connecticut-Tri-Campus"}, {"city": "Philadelphia", "state": "PA", "id": 652, "title": "The Curtis Institute Of Music"}, {"city": "Waco", "state": "GA", "location": {"city": "Waco", "full_address": "Waco, GA, USA", "state": "Georgia", "state_short": "GA", "longitude": -85.1832821, "latitude": 33.7028848, "city_short": "Waco"}, "id": 706, "title": "West Central Tech College-Murphy"}, {"city": "Syracuse", "state": "NY", "location": {"city": "Syracuse", "full_address": "Syracuse Community Health Center, 819 South Salina Street, Syracuse, NY 13202, USA", "state": "New York", "state_short": "NY", "longitude": -76.1500167, "latitude": 43.0398797, "city_short": "Syracuse", "zip_code": "13202"}, "id": 721, "title": "St Joseph'S College Of Nursing At St Joseph'S Hospital Health Center"}, {"city": "Fort lauderdale", "state": "FL", "location": {"city": "Fort Lauderdale", "full_address": "Broward Community College Center, Fort Lauderdale, FL 33316, USA", "state": "Florida", "state_short": "FL", "longitude": -80.1261093, "latitude": 26.0977657, "city_short": "Fort Lauderdale", "zip_code": "33316"}, "id": 766, "title": "Broward Community College - Downtown"}, {"city": "Winston salem", "state": "NC", "location": {"city": "Winston-Salem", "full_address": "Winston-Salem, NC, USA", "state": "North Carolina", "state_short": "NC", "longitude": -80.244216, "latitude": 36.09985959999999, "city_short": "Winston-Salem"}, "id": 799, "title": "Piedmont Baptist College And Graduate School"}, {"city": "Hazard", "state": "KY", "location": {"city": "Hazard", "full_address": "Hazard, KY, USA", "state": "Kentucky", "state_short": "KY", "longitude": -83.1932284, "latitude": 37.24954, "city_short": "Hazard"}, "id": 844, "title": "Hazard Cmty/Tech College"}, {"city": "Holbrook", "state": "AZ", "location": {"city": "Holbrook", "full_address": "Holbrook, AZ 86025, USA", "state": "Arizona", "state_short": "AZ", "longitude": -110.1581768, "latitude": 34.9022482, "city_short": "Holbrook", "zip_code": "86025"}, "id": 855, "title": "Northland Pioneer Clg-Paint De"}, {"city": "Dayton", "state": "OH", "location": {"city": "Dayton", "full_address": "Dayton, OH, USA", "state": "Ohio", "state_short": "OH", "longitude": -84.1916069, "latitude": 39.7589478, "city_short": "Dayton"}, "id": 858, "title": "Kettering College Of Medical Arts"}, {"city": "Harrogate", "state": "TN", "id": 889, "title": "Lincoln Memorial University"}, {"city": "Minneapolis", "state": "MN", "location": {"city": "Minneapolis", "full_address": "Minneapolis, MN, USA", "state": "Minnesota", "state_short": "MN", "longitude": -93.2674306, "latitude": 44.9761541, "city_short": "Minneapolis"}, "id": 899, "title": "Herzing Clg-Lakeland Med-Dent"}, {"city": "Atlanta", "state": "GA", "location": {"city": "Atlanta", "full_address": "Atlanta, GA, USA", "state": "Georgia", "state_short": "GA", "longitude": -84.3879824, "latitude": 33.7489954, "city_short": "Atlanta"}, "id": 919, "title": "American Intercontinental University-Dunwoody Campus"}, {"city": "Louisville", "state": "KY", "location": {"city": "Louisville", "full_address": "Louisville, KY, USA", "state": "Kentucky", "state_short": "KY", "longitude": -85.7584557, "latitude": 38.2526647, "city_short": "Louisville"}, "id": 995, "title": "Jefferson Community Tech College-Louis"}, {"city": "Wilmore", "state": "KY", "location": {"city": "Wilmore", "full_address": "Wilmore, KY, USA", "state": "Kentucky", "state_short": "KY", "longitude": -84.6616105, "latitude": 37.8620226, "city_short": "Wilmore"}, "id": 1012, "title": "Asbury Theological Sem-Kentuc"}, {"city": "Tempe", "state": "AZ", "location": {"city": "Tempe", "full_address": "Tempe, AZ, USA", "state": "Arizona", "state_short": "AZ", "longitude": -111.9400054, "latitude": 33.4255104, "city_short": "Tempe"}, "id": 1027, "title": "Southwest College Of Naturopathic Medicine & Health Sciences"}, {"city": "Salem", "state": "VA", "location": {"city": "Salem", "full_address": "Salem, VA, USA", "state": "Virginia", "state_short": "VA", "longitude": -80.05476259999999, "latitude": 37.2934681, "city_short": "Salem"}, "id": 1064, "title": "National College of Bus Tech-Roano"}, {"city": "San francisco", "state": "CA", "location": {"city": "San Francisco", "full_address": "ALLIANT INTERNATIONAL UNIVERSITY, 1 Beach Street #100, San Francisco, CA 94133, USA", "state": "California", "state_short": "CA", "longitude": -122.4095696, "latitude": 37.8078037, "city_short": "SF", "zip_code": "94133"}, "id": 1071, "title": "Alliant International University Off"}, {"city": "Fort worth", "state": "TX", "location": {"city": "Fort Worth", "full_address": "Fort Worth, TX, USA", "state": "Texas", "state_short": "TX", "longitude": -97.3307658, "latitude": 32.7554883, "city_short": "Fort Worth"}, "id": 1079, "title": "Westwood Clg Of Tech-F Worth"}, {"city": "Abington", "state": "PA", "location": {"city": "Abington", "full_address": "Abington, PA, USA", "state": "Pennsylvania", "state_short": "PA", "longitude": -75.1253492, "latitude": 40.1198332, "city_short": "Abington"}, "id": 1102, "title": "Penn St University Abbington College"}, {"city": "Louisville", "state": "KY", "location": {"city": "Louisville", "full_address": "Louisville, KY, USA", "state": "Kentucky", "state_short": "KY", "longitude": -85.7584557, "latitude": 38.2526647, "city_short": "Louisville"}, "id": 1130, "title": "Jefferson Cmty Tech Clg-Sw"}, {"city": "Kansas city", "state": "MO", "location": {"city": "Kansas City", "full_address": "Kansas City, MO, USA", "state": "Missouri", "state_short": "MO", "longitude": -94.5785667, "latitude": 39.0997265, "city_short": "KCMO"}, "id": 1153, "title": "Metropolitan Community College-Maple Woods"}, {"city": "Orchard park", "state": "NY", "location": {"city": "Orchard Park", "full_address": "Orchard Park, NY 14127, USA", "state": "New York", "state_short": "NY", "longitude": -78.7439189, "latitude": 42.76755929999999, "city_short": "Orchard Park", "zip_code": "14127"}, "id": 1180, "title": "Bryant And Stratton College-Southtowns"}, {"city": "Utica", "state": "NY", "location": {"city": "Utica", "full_address": "Utica, NY, USA", "state": "New York", "state_short": "NY", "longitude": -75.232664, "latitude": 43.100903, "city_short": "Utica"}, "id": 1235, "title": "Mohawk Valley Community College-Utica Branch"}, {"city": "Yellow spgs", "state": "OH", "location": {"latitude": 40.4172871, "state": "Ohio", "state_short": "OH", "full_address": "Ohio, USA", "longitude": -82.90712300000001}, "id": 1240, "title": "Antioch University Mcgregor"}, {"city": "Norwood", "state": "MA", "location": {"city": "Norwood", "full_address": "Norwood, MA, USA", "state": "Massachusetts", "state_short": "MA", "longitude": -71.19896949999999, "latitude": 42.19439089999999, "city_short": "Norwood"}, "id": 1277, "title": "Fine Mortuary College Llc"}, {"city": "Santa ana", "state": "CA", "location": {"city": "Santa Ana", "full_address": "Santa Ana, CA, USA", "state": "California", "state_short": "CA", "longitude": -117.8678338, "latitude": 33.7455731, "city_short": "Santa Ana"}, "id": 1289, "title": "Trinity Law And Graduate School"}, {"city": "Cambridge", "state": "MA", "location": {"city": "Cambridge", "full_address": "Cambridge, MA, USA", "state": "Massachusetts", "state_short": "MA", "longitude": -71.10973349999999, "latitude": 42.3736158, "city_short": "Cambridge"}, "id": 1323, "title": "Weston Jesuit School Of Theology"}, {"city": "Grand rapids", "state": "MI", "location": {"city": "Grand Rapids", "full_address": "Grand Rapids, MI, USA", "state": "Michigan", "state_short": "MI", "longitude": -85.6680863, "latitude": 42.9633599, "city_short": "Grand Rapids"}, "id": 1348, "title": "Davenport University-Lettinga"}, {"city": "Minneapolis", "state": "MN", "location": {"city": "Minneapolis", "full_address": "Minneapolis, MN, USA", "state": "Minnesota", "state_short": "MN", "longitude": -93.2674306, "latitude": 44.9761541, "city_short": "Minneapolis"}, "id": 1366, "title": "American Indian Oic Inc"}, {"city": "Cisco", "state": "TX", "location": {"city": "Cisco", "full_address": "Cisco, TX 76437, USA", "state": "Texas", "state_short": "TX", "longitude": -98.97923360000001, "latitude": 32.38818610000001, "city_short": "Cisco", "zip_code": "76437"}, "id": 1402, "title": "Cisco Junior College"}, {"city": "West palm bch", "state": "FL", "location": {"latitude": 27.6648274, "state": "Florida", "state_short": "FL", "full_address": "Florida, USA", "longitude": -81.5157535}, "id": 1403, "title": "Northwood University-Florida Education Center"}, {"city": "Chicago", "state": "IL", "location": {"city": "Chicago", "full_address": "Chicago, IL, USA", "state": "Illinois", "state_short": "IL", "longitude": -87.6297982, "latitude": 41.8781136, "city_short": "Chicago"}, "id": 1441, "title": "City Colleges Of Chicago Sys"}, {"city": "Terre haute", "state": "IN", "location": {"city": "Terre Haute", "full_address": "Terre Haute, IN, USA", "state": "Indiana", "state_short": "IN", "longitude": -87.41390919999999, "latitude": 39.4667034, "city_short": "Terre Haute"}, "id": 1451, "title": "Ivy Tech Community College-Wabash Valley"}, {"city": "Mansfield", "state": "OH", "location": {"city": "Mansfield", "full_address": "Mansfield, OH, USA", "state": "Ohio", "state_short": "OH", "longitude": -82.5154471, "latitude": 40.75839, "city_short": "Mansfield"}, "id": 1458, "title": "Med Central College Of Nursing"}, {"city": "Pittsburgh", "state": "PA", "location": {"city": "Pittsburgh", "full_address": "Pittsburgh, PA, USA", "state": "Pennsylvania", "state_short": "PA", "longitude": -79.9958864, "latitude": 40.44062479999999, "city_short": "Pittsburgh"}, "id": 1489, "title": "Kaplan Career Institute-Icm Campus"}, {"city": "Alva", "state": "OK", "location": {"city": "Alva", "full_address": "Alva, OK 73717, USA", "state": "Oklahoma", "state_short": "OK", "longitude": -98.6664737, "latitude": 36.8050308, "city_short": "Alva", "zip_code": "73717"}, "id": 1494, "title": "Northwestern Ok St University-Alva"}, {"city": "Phoenix", "state": "AZ", "location": {"city": "Phoenix", "full_address": "Phoenix, AZ, USA", "state": "Arizona", "state_short": "AZ", "longitude": -112.0740373, "latitude": 33.4483771, "city_short": "Phoenix"}, "id": 1570, "title": "American Indian College Of The Assemblies Of God Inc"}, {"city": "Austin", "state": "TX", "location": {"city": "Austin", "full_address": "Austin, TX, USA", "state": "Texas", "state_short": "TX", "longitude": -97.7430608, "latitude": 30.267153, "city_short": "Austin"}, "id": 1578, "title": "Concordia University System"}, {"city": "Long beach", "state": "CA", "location": {"city": "Long Beach", "full_address": "Long Beach, CA, USA", "state": "California", "state_short": "CA", "longitude": -118.1937395, "latitude": 33.7700504, "city_short": "Long Beach"}, "id": 1619, "title": "The California St University Sys Off"}, {"city": "San antonio", "state": "TX", "location": {"city": "San Antonio", "full_address": "San Antonio, TX, USA", "state": "Texas", "state_short": "TX", "longitude": -98.49362819999999, "latitude": 29.4241219, "city_short": "San Antonio"}, "id": 1636, "title": "Hallmark College Of Technology/Hallmark College Of Aeronautics"}, {"city": "Warwick", "state": "RI", "location": {"city": "Warwick", "full_address": "Warwick, RI, USA", "state": "Rhode Island", "state_short": "RI", "longitude": -71.4161671, "latitude": 41.7001009, "city_short": "Warwick"}, "id": 1662, "title": "Community College of Rhode Island-Knigh"}, {"city": "Muscle shoals", "state": "AL", "location": {"city": "Muscle Shoals", "full_address": "Muscle Shoals, AL, USA", "state": "Alabama", "state_short": "AL", "longitude": -87.66752919999999, "latitude": 34.7448112, "city_short": "Muscle Shoals"}, "id": 1675, "title": "Nw Shoals Community College-Shoals"}, {"city": "Wilson", "state": "NC", "location": {"city": "Wilson", "full_address": "Wilson Community College, Wilson County Technical Institute, 902 Herring Avenue East, Wilson, NC 27893, USA", "state": "North Carolina", "state_short": "NC", "longitude": -77.89573, "latitude": 35.7300639, "city_short": "Wilson", "zip_code": "27893"}, "id": 1747, "title": "Wilson Technical Cmty College"}, {"city": "New port richey", "state": "FL", "location": {"city": "New Port Richey", "full_address": "New Port Richey, FL, USA", "state": "Florida", "state_short": "FL", "longitude": -82.7192671, "latitude": 28.2441768, "city_short": "New Port Richey"}, "id": 1751, "title": "Pasco-Hernando Community College Dist"}, {"city": "Denver", "state": "CO", "location": {"city": "Denver", "full_address": "Denver, CO, USA", "state": "Colorado", "state_short": "CO", "longitude": -104.9848593, "latitude": 39.7384357, "city_short": "Denver"}, "id": 1816, "title": "Emily Griffith Opportunity School"}, {"city": "Fairbanks", "state": "AK", "location": {"city": "Fairbanks", "full_address": "Fairbanks, AK, USA", "state": "Alaska", "state_short": "AK", "longitude": -147.7163889, "latitude": 64.8377778, "city_short": "Fairbanks"}, "id": 1822, "title": "University Of Alaska Statewide Sys"}, {"city": "Brunswick", "state": "GA", "location": {"city": "Brunswick", "full_address": "Brunswick, GA, USA", "state": "Georgia", "state_short": "GA", "longitude": -81.49148939999999, "latitude": 31.1499528, "city_short": "Brunswick"}, "id": 1844, "title": "Coastal Georgia Community College"}, {"city": "Charlotte", "state": "NC", "location": {"city": "Charlotte", "full_address": "Charlotte, NC, USA", "state": "North Carolina", "state_short": "NC", "longitude": -80.8431267, "latitude": 35.2270869, "city_short": "Charlotte"}, "id": 1879, "title": "Central Piedmont Cmty Clg-Lev"}, {"city": "Syracuse", "state": "NY", "location": {"city": "Syracuse", "full_address": "Syracuse, NY, USA", "state": "New York", "state_short": "NY", "longitude": -76.14742439999999, "latitude": 43.0481221, "city_short": "Syracuse"}, "id": 1882, "title": "SUNY College of Env Sci/Forestry"}, {"city": "Ridgecrest", "state": "CA", "location": {"city": "Ridgecrest", "full_address": "Ridgecrest, CA, USA", "state": "California", "state_short": "CA", "longitude": -117.6708966, "latitude": 35.6224561, "city_short": "Ridgecrest"}, "id": 1895, "title": "Cerro Coso Community College-Indian Wel"}, {"city": "Bridgeview", "state": "IL", "location": {"city": "Bridgeview", "full_address": "Bridgeview, IL, USA", "state": "Illinois", "state_short": "IL", "longitude": -87.80422159999999, "latitude": 41.7500323, "city_short": "Bridgeview"}, "id": 1904, "title": "Northwestern Business College-Southwestern Campus"}, {"city": "Nashville", "state": "TN", "location": {"city": "Nashville", "full_address": "Nashville, TN, USA", "state": "Tennessee", "state_short": "TN", "longitude": -86.7816016, "latitude": 36.1626638, "city_short": "Nashville"}, "id": 1931, "title": "Free Will Baptist Bible College"}, {"city": "Tucson", "state": "AZ", "location": {"city": "Tucson", "full_address": "South Desert Vista Drive, Tucson, AZ 85748, USA", "state": "Arizona", "state_short": "AZ", "longitude": -110.7842679, "latitude": 32.2023571, "city_short": "Tucson", "zip_code": "85748"}, "id": 1944, "title": "Pima Community Clg-Desert Vist"}, {"city": "Prestonsburg", "state": "KY", "location": {"city": "Prestonsburg", "full_address": "Prestonsburg, KY, USA", "state": "Kentucky", "state_short": "KY", "longitude": -82.7715486, "latitude": 37.6656527, "city_short": "Prestonsburg"}, "id": 2014, "title": "Big Sandy Community/Tech College-Prest"}, {"city": "Newtown", "state": "PA", "location": {"city": "Newtown", "full_address": "Newtown, PA 18940, USA", "state": "Pennsylvania", "state_short": "PA", "longitude": -74.9322596, "latitude": 40.2283371, "city_short": "Newtown", "zip_code": "18940"}, "id": 2041, "title": "Bucks Co Community College-Newton"}, {"city": "Delhi", "state": "NY", "location": {"city": "Delhi", "full_address": "Delhi, NY 13753, USA", "state": "New York", "state_short": "NY", "longitude": -74.91599459999999, "latitude": 42.27814009999999, "city_short": "Delhi", "zip_code": "13753"}, "id": 2069, "title": "SUNY Delhi College of Tech"}, {"city": "Davenport", "state": "IA", "location": {"city": "Davenport", "full_address": "Davenport, IA, USA", "state": "Iowa", "state_short": "IA", "longitude": -90.5776367, "latitude": 41.5236437, "city_short": "Davenport"}, "id": 2071, "title": "Eastern Iowa Community College Dist Off"}, {"city": "Indianapolis", "state": "IN", "location": {"city": "Indianapolis", "full_address": "Indianapolis, IN, USA", "state": "Indiana", "state_short": "IN", "longitude": -86.158068, "latitude": 39.768403, "city_short": "Indianapolis"}, "id": 2076, "title": "Ivy Tech Cmty Clg Ctrl Office"}, {"city": "Culver city", "state": "CA", "location": {"city": "Culver City", "full_address": "Culver City, CA, USA", "state": "California", "state_short": "CA", "longitude": -118.3964665, "latitude": 34.0211224, "city_short": "Culver City"}, "id": 2086, "title": "Antioch University-Los Angeles Branch"}, {"city": "Purchase", "state": "NY", "location": {"city": "Harrison", "full_address": "Purchase, Harrison, NY 10577, USA", "state": "New York", "state_short": "NY", "longitude": -73.71457459999999, "latitude": 41.04093049999999, "city_short": "Harrison", "zip_code": "10577"}, "id": 2113, "title": "SUNY College at Purchase"}, {"city": "Holland", "state": "MI", "location": {"city": "Holland", "full_address": "Holland, MI, USA", "state": "Michigan", "state_short": "MI", "longitude": -86.1089301, "latitude": 42.7875235, "city_short": "Holland"}, "id": 2135, "title": "Grand Valley St University - Meijer"}, {"city": "San antonio", "state": "TX", "location": {"city": "San Antonio", "full_address": "San Antonio, TX, USA", "state": "Texas", "state_short": "TX", "longitude": -98.49362819999999, "latitude": 29.4241219, "city_short": "San Antonio"}, "id": 2143, "title": "Kaplan Career Institute-San Antonio Campus"}, {"city": "Boston", "state": "MA", "location": {"city": "Boston", "full_address": "Boston, MA, USA", "state": "Massachusetts", "state_short": "MA", "longitude": -71.060097, "latitude": 42.3584865, "city_short": "Boston"}, "id": 2152, "title": "The Art Inst Of Boston-Lesley"}, {"city": "Lexington", "state": "KY", "location": {"city": "Lexington", "full_address": "Lexington, KY, USA", "state": "Kentucky", "state_short": "KY", "longitude": -84.5037164, "latitude": 38.0405837, "city_short": "Lexington"}, "id": 2185, "title": "Bluegrass Community/Tech College-Cooper"}, {"city": "Richmond", "state": "IN", "location": {"city": "Richmond", "full_address": "Richmond, IN, USA", "state": "Indiana", "state_short": "IN", "longitude": -84.8902382, "latitude": 39.8289369, "city_short": "Richmond"}, "id": 2226, "title": "Ivy Tech Community College-Whitewater"}, {"city": "Grantsboro", "state": "NC", "location": {"city": "Grantsboro", "full_address": "Grantsboro, NC, USA", "state": "North Carolina", "state_short": "NC", "longitude": -76.84243599999999, "latitude": 35.1404424, "city_short": "Grantsboro"}, "id": 2256, "title": "Pamlico Community College"}, {"city": "Miami", "state": "FL", "location": {"city": "Miami", "full_address": "Miami, FL, USA", "state": "Florida", "state_short": "FL", "longitude": -80.1917902, "latitude": 25.7616798, "city_short": "Miami"}, "id": 2266, "title": "Jones College-Miami Campus"}, {"city": "Queens", "state": "NY", "location": {"city": "New York", "full_address": "Queens, NY, USA", "state": "New York", "state_short": "NY", "longitude": -73.86666699999999, "latitude": 40.75, "city_short": "New York"}, "id": 2279, "title": "St John's College/College Prof Studies"}, {"city": "Tucson", "state": "AZ", "location": {"city": "Tucson", "full_address": "Pima Community College, 1630 South Alvernon Way, Tucson, AZ 85711, USA", "state": "Arizona", "state_short": "AZ", "longitude": -110.9102394, "latitude": 32.2024167, "city_short": "Tucson", "zip_code": "85711"}, "id": 2309, "title": "Pima Community College District"}, {"city": "Tampa", "state": "FL", "location": {"city": "Tampa", "full_address": "Tampa, FL, USA", "state": "Florida", "state_short": "FL", "longitude": -82.4571776, "latitude": 27.950575, "city_short": "Tampa"}, "id": 2364, "title": "Hillsborough Community College Dist Off"}, {"city": "Tifton", "state": "GA", "location": {"city": "Tifton", "full_address": "Tifton, GA, USA", "state": "Georgia", "state_short": "GA", "longitude": -83.5084973, "latitude": 31.4504629, "city_short": "Tifton"}, "id": 2451, "title": "Abraham Baldwin Agri College"}, {"city": "North chicago", "state": "IL", "location": {"city": "North Chicago", "full_address": "North Chicago, IL, USA", "state": "Illinois", "state_short": "IL", "longitude": -87.8411818, "latitude": 42.325578, "city_short": "North Chicago"}, "id": 2458, "title": "Rosalind Franklin University Med/Sci"}, {"city": "Richmond", "state": "VA", "location": {"city": "Richmond", "full_address": "J. Sargeant Reynolds Community College (Downtown Campus), 700 East Jackson Street, Richmond, VA 23219, USA", "state": "Virginia", "state_short": "VA", "longitude": -77.431308, "latitude": 37.5456832, "city_short": "Richmond", "zip_code": "23219"}, "id": 2486, "title": "J South Reynolds Community College"}, {"city": "Orlando", "state": "FL", "location": {"city": "Orlando", "full_address": "Florida Institute of Technology, 2420 Lakemont Avenue, Orlando, FL 32814, USA", "state": "Florida", "state_short": "FL", "longitude": -81.3283391, "latitude": 28.5733689, "city_short": "Orlando", "zip_code": "32814"}, "id": 2487, "title": "Florida Tech College-Orlando"}, {"city": "Fremont", "state": "CA", "location": {"city": "Fremont", "full_address": "Ohlone College, 43600 Mission Boulevard, Fremont, CA 94539, USA", "state": "California", "state_short": "CA", "longitude": -121.9144583, "latitude": 37.5305222, "city_short": "Fremont", "zip_code": "94539"}, "id": 2488, "title": "Ohlone College"}, {"city": "Reno", "state": "NV", "location": {"city": "Reno", "full_address": "Truckee Meadows Community College (TMCC), 7000 Dandini Boulevard, Reno, NV 89512, USA", "state": "Nevada", "state_short": "NV", "longitude": -119.7969669, "latitude": 39.5719643, "city_short": "Reno", "zip_code": "89512"}, "id": 2489, "title": "Truckee Meadows Community College"}, {"city": "El cajon", "state": "CA", "location": {"city": "El Cajon", "full_address": "Grossmont-Cuyamaca Community College District, 8800 Grossmont College Drive, El Cajon, CA 92020, USA", "state": "California", "state_short": "CA", "longitude": -117.006894, "latitude": 32.819883, "city_short": "El Cajon", "zip_code": "92020"}, "id": 2490, "title": "Grossmont-Cuyamaca Clg Dist"}, {"city": "Richland", "state": "WA", "location": {"city": "Richland", "full_address": "Washington State University, 2710 Crimson Way, Richland, WA 99354, USA", "state": "Washington", "state_short": "WA", "longitude": -119.2641078, "latitude": 46.3304434, "city_short": "Richland", "zip_code": "99354"}, "id": 2491, "title": "Washington State Univ-Tri-City"}, {"city": "Upland", "state": "IN", "location": {"city": "Upland", "full_address": "Taylor University, 236 West Reade Avenue, Upland, IN 46989, USA", "state": "Indiana", "state_short": "IN", "longitude": -85.49706270000001, "latitude": 40.4562106, "city_short": "Upland", "zip_code": "46989"}, "id": 2492, "title": "Taylor University"}, {"city": "Cedar rapids", "state": "IA", "location": {"city": "Cedar Rapids", "full_address": "Mount Mercy University, 1330 Elmhurst Drive Northeast, Cedar Rapids, IA 52402, USA", "state": "Iowa", "state_short": "IA", "longitude": -91.65103909999999, "latitude": 42.0021111, "city_short": "Cedar Rapids", "zip_code": "52402"}, "id": 2493, "title": "Mount Mercy College"}, {"city": "Curtis", "state": "NE", "location": {"city": "Curtis", "full_address": "Nebraska College of Technical Agriculture, 404 East 7th Street, Curtis, NE 69025, USA", "state": "Nebraska", "state_short": "NE", "longitude": -100.5106291, "latitude": 40.6358597, "city_short": "Curtis", "zip_code": "69025"}, "id": 2494, "title": "Nebraska College Of Technical Agriculture"}, {"city": "Richmond", "state": "KY", "location": {"city": "Richmond", "full_address": "Eastern Kentucky University, 521 Lancaster Avenue, Richmond, KY 40475, USA", "state": "Kentucky", "state_short": "KY", "longitude": -84.301818, "latitude": 37.738514, "city_short": "Richmond", "zip_code": "40475"}, "id": 2495, "title": "Eastern Kentucky University"}, {"city": "Danville", "state": "IL", "location": {"city": "Danville", "full_address": "Danville Area Community College, 2000 East Main Street, Danville, IL 61832, USA", "state": "Illinois", "state_short": "IL", "longitude": -87.5879227, "latitude": 40.12942100000001, "city_short": "Danville", "zip_code": "61832"}, "id": 2496, "title": "Danville Area Community College"}, {"city": "Poulsbo", "state": "WA", "location": {"city": "Poulsbo", "full_address": "Northwest College of Art & Design, 16301 Creative Drive Northeast, Poulsbo, WA 98370, USA", "state": "Washington", "state_short": "WA", "longitude": -122.6027418, "latitude": 47.7110277, "city_short": "Poulsbo", "zip_code": "98370"}, "id": 2497, "title": "Northwest College Of Art"}, {"city": "Pasadena", "state": "CA", "location": {"city": "Pasadena", "full_address": "California Institute of Technology, 1200 East California Boulevard, Pasadena, CA 91125, USA", "state": "California", "state_short": "CA", "longitude": -118.125269, "latitude": 34.1376576, "city_short": "Pasadena", "zip_code": "91125"}, "id": 2498, "title": "California Institute of Technology"}, {"city": "Irving", "state": "TX", "location": {"city": "Irving", "full_address": "DeVry University Irving, Texas, 4800 Regent Boulevard #200, Irving, TX 75063, USA", "state": "Texas", "state_short": "TX", "longitude": -97.01228859999999, "latitude": 32.9344065, "city_short": "Irving", "zip_code": "75063"}, "id": 2499, "title": "Devry University-Irving"}, {"city": "Flushing", "state": "NY", "location": {"city": "Flushing", "full_address": "Vaughn College of Aeronautics and Technology, 8601 23rd Avenue, Flushing, NY 11369, USA", "state": "New York", "state_short": "NY", "longitude": -73.88240689999999, "latitude": 40.7679103, "city_short": "Flushing", "zip_code": "11369"}, "id": 2500, "title": "Vaughn College"}, {"city": "Lamoni", "state": "IA", "location": {"city": "Lamoni", "full_address": "Graceland University, 1 University Place, Lamoni, IA 50140, USA", "state": "Iowa", "state_short": "IA", "longitude": -93.92563799999999, "latitude": 40.616346, "city_short": "Lamoni", "zip_code": "50140"}, "id": 2501, "title": "Graceland University"}, {"city": "Princeton", "state": "NJ", "location": {"city": "Princeton", "full_address": "Princeton University, Princeton, NJ 08544, USA", "state": "New Jersey", "state_short": "NJ", "longitude": -74.6514481, "latitude": 40.3439888, "city_short": "Princeton", "zip_code": "08544"}, "id": 2502, "title": "Princeton University"}, {"city": "Indianapolis", "state": "IN", "location": {"city": "Indianapolis", "full_address": "Butler University, 4600 Sunset Avenue, Indianapolis, IN 46208, USA", "state": "Indiana", "state_short": "IN", "longitude": -86.1697197, "latitude": 39.8396005, "city_short": "Indianapolis", "zip_code": "46208"}, "id": 2503, "title": "Butler University"}, {"city": "Colorado springs", "state": "CO", "location": {"city": "Colorado Springs", "full_address": "Colorado Springs, CO, USA", "state": "Colorado", "state_short": "CO", "longitude": -104.8213634, "latitude": 38.8338816, "city_short": "Colorado Springs"}, "id": 2504, "title": "Colorado Tech University-Co Springs"}, {"city": "Urbana", "state": "IL", "location": {"city": "Urbana", "full_address": "University Illinois University Administration, University of Illinois at Urbana-Champaign, 506 South Wright Street, Urbana, IL 61801, USA", "state": "Illinois", "state_short": "IL", "longitude": -88.228276, "latitude": 40.1083969, "city_short": "Urbana", "zip_code": "61801"}, "id": 2505, "title": "University Of Illinois University Admin"}, {"city": "Port arthur", "state": "TX", "location": {"city": "Port Arthur", "full_address": "Lamar State College - Port Arthur, 1500 Procter Street, Port Arthur, TX 77640, USA", "state": "Texas", "state_short": "TX", "longitude": -93.92728640000001, "latitude": 29.8797159, "city_short": "Port Arthur", "zip_code": "77640"}, "id": 2506, "title": "Lamar State College-Port Arthur"}, {"city": "Cortland", "state": "NY", "location": {"city": "Cortland", "full_address": "Main Street SUNY Cortland, Main Street, Cortland, NY 13045, USA", "state": "New York", "state_short": "NY", "longitude": -76.18021360000002, "latitude": 42.6008181, "city_short": "Cortland", "zip_code": "13045"}, "id": 2507, "title": "SUNY Cortland College"}, {"city": "Alexandria", "state": "VA", "location": {"city": "Alexandria", "full_address": "Northern Virginia Community College-Alexandria Campus, 3001 North Beauregard Street, Alexandria, VA 22311, USA", "state": "Virginia", "state_short": "VA", "longitude": -77.1113106, "latitude": 38.8391622, "city_short": "Alexandria", "zip_code": "22311"}, "id": 2508, "title": "North Virginia Community College-Alexandria"}, {"city": "Stevens point", "state": "WI", "location": {"city": "Stevens Point", "full_address": "University of Wisconsin, 2100 Main Street, Stevens Point, WI 54481, USA", "state": "Wisconsin", "state_short": "WI", "longitude": -89.5697649, "latitude": 44.5288643, "city_short": "Stevens Point", "zip_code": "54481"}, "id": 2509, "title": "University Of Wisconsin-Stevens Point"}, {"city": "Roanoke", "state": "VA", "location": {"city": "Roanoke", "full_address": "Virginia Western Community College, 3094 Colonial Avenue, Roanoke, VA 24015, USA", "state": "Virginia", "state_short": "VA", "longitude": -79.9728554, "latitude": 37.2454426, "city_short": "Roanoke", "zip_code": "24015"}, "id": 2510, "title": "Virginia Western Community College"}, {"city": "New york", "state": "NY", "location": {"city": "New York", "full_address": "The Jewish Theological Seminary, Columbia University, 3080 Broadway, New York, NY 10027, USA", "state": "New York", "state_short": "NY", "longitude": -73.9606117, "latitude": 40.811899, "city_short": "NY", "zip_code": "10027"}, "id": 2511, "title": "Jewish Theological Seminary Of America"}, {"city": "West lafayette", "state": "IN", "location": {"city": "West Lafayette", "full_address": "Purdue University, 610 Purdue Mall, West Lafayette, IN 47907, USA", "state": "Indiana", "state_short": "IN", "longitude": -86.92119459999999, "latitude": 40.4237054, "city_short": "West Lafayette", "zip_code": "47907"}, "id": 2512, "title": "Purdue University"}, {"city": "Santa monica", "state": "CA", "location": {"city": "Santa Monica", "full_address": "Santa Monica College (Main Campus), 1900 Pico Boulevard, Santa Monica, CA 90405, USA", "state": "California", "state_short": "CA", "longitude": -118.4697553, "latitude": 34.0170234, "city_short": "Santa Monica", "zip_code": "90405"}, "id": 2513, "title": "Santa Monica College"}, {"city": "Crowley", "state": "LA", "location": {"city": "Crowley", "full_address": "La Tech College Acadian Campus, 1933 West Hutchinson Avenue, Crowley, LA 70526, USA", "state": "Louisiana", "state_short": "LA", "longitude": -92.395192, "latitude": 30.20522799999999, "city_short": "Crowley", "zip_code": "70526"}, "id": 2514, "title": "Louisiana Technical College-Acadian Campus"}, {"city": "Laredo", "state": "TX", "location": {"city": "Laredo", "full_address": "Laredo Community College, West End Washington Street, Laredo, TX 78040, USA", "state": "Texas", "state_short": "TX", "longitude": -99.521463, "latitude": 27.508643, "city_short": "Laredo", "zip_code": "78040"}, "id": 2515, "title": "Laredo Community College"}, {"city": "Baytown", "state": "TX", "location": {"city": "Baytown", "full_address": "Lee College, 200 Lee Drive, Baytown, TX 77520, USA", "state": "Texas", "state_short": "TX", "longitude": -94.9787547, "latitude": 29.7311425, "city_short": "Baytown", "zip_code": "77520"}, "id": 2516, "title": "Lee College"}, {"city": "Lihue", "state": "HI", "location": {"city": "L\u012bhu\u02bbe", "full_address": "Kaua\u00b4i Community College, 3-1901 Kaumualii Highway, L\u012bhu\u02bbe, HI 96766, USA", "state": "Hawaii", "state_short": "HI", "longitude": -159.3972983, "latitude": 21.9687927, "city_short": "L\u012bhu\u02bbe", "zip_code": "96766"}, "id": 2517, "title": "Kauai Community College"}, {"city": "Spokane", "state": "WA", "location": {"city": "Spokane", "full_address": "Washington State University Spokane, 412 East Spokane Falls Boulevard, Spokane, WA 99202, USA", "state": "Washington", "state_short": "WA", "longitude": -117.4049592, "latitude": 47.6602621, "city_short": "Spokane", "zip_code": "99202"}, "id": 2518, "title": "Washington State Univ-Spokane"}, {"city": "West liberty", "state": "WV", "location": {"city": "Wheeling", "full_address": "West Liberty University, Wheeling, WV 26003, USA", "state": "West Virginia", "state_short": "WV", "longitude": -80.6000794, "latitude": 40.1642119, "city_short": "Wheeling", "zip_code": "26003"}, "id": 2519, "title": "West Liberty University"}, {"city": "Ann arbor", "state": "MI", "location": {"city": "Ann Arbor", "full_address": "Concordia University, BANK OF ANN ARBOR, 4090 Geddes Road, Ann Arbor, MI 48105, USA", "state": "Michigan", "state_short": "MI", "longitude": -83.68054389999999, "latitude": 42.2738635, "city_short": "Ann Arbor", "zip_code": "48105"}, "id": 2520, "title": "Concordia University-Ann Arbor"}, {"city": "Incline village", "state": "NV", "location": {"city": "Incline Village", "full_address": "Sierra Nevada College, Humboldt-Toiyabe National Forest, 999 Tahoe Boulevard, Incline Village, NV 89451, USA", "state": "Nevada", "state_short": "NV", "longitude": -119.938638, "latitude": 39.2434377, "city_short": "IVGID", "zip_code": "89451"}, "id": 2521, "title": "Sierra Nevada College"}, {"city": "Dillon", "state": "MT", "location": {"city": "Dillon", "full_address": "The University of Montana Western, 710 South Atlantic Street, Dillon, MT 59725, USA", "state": "Montana", "state_short": "MT", "longitude": -112.6410366, "latitude": 45.2084017, "city_short": "Dillon", "zip_code": "59725"}, "id": 2522, "title": "The University Of Montana-Western"}, {"city": "Benton harbor", "state": "MI", "location": {"city": "Benton Harbor", "full_address": "Lake Michigan College, 2755 East Napier Avenue, Benton Harbor, MI 49022, USA", "state": "Michigan", "state_short": "MI", "longitude": -86.3927538, "latitude": 42.09670870000001, "city_short": "Benton Harbor", "zip_code": "49022"}, "id": 2523, "title": "Lake Michigan Clg-Napier Ave"}, {"city": "Saint joseph", "state": "MO", "location": {"city": "Saint Joseph", "full_address": "Missouri Western State University, 4525 Downs Drive, Saint Joseph, MO 64507, USA", "state": "Missouri", "state_short": "MO", "longitude": -94.78998539999999, "latitude": 39.75943060000001, "city_short": "St Joseph", "zip_code": "64507"}, "id": 2524, "title": "Missouri Western State College"}, {"city": "Hamden", "state": "CT", "location": {"city": "Hamden", "full_address": "Quinnipiac University, 275 Mount Carmel Avenue, Hamden, CT 06518, USA", "state": "Connecticut", "state_short": "CT", "longitude": -72.89469729999999, "latitude": 41.4203051, "city_short": "Hamden", "zip_code": "06518"}, "id": 2525, "title": "Quinnipiac University"}, {"city": "Pasadena", "state": "CA", "location": {"city": "Pasadena", "full_address": "Fuller Theological Seminary, 135 North Oakland Avenue, Pasadena, CA 91101, USA", "state": "California", "state_short": "CA", "longitude": -118.140428, "latitude": 34.1478858, "city_short": "Pasadena", "zip_code": "91101"}, "id": 2526, "title": "Fuller Theological Seminary"}, {"city": "Stockton", "state": "CA", "location": {"city": "Stockton", "full_address": "University of the Pacific, 3601 Pacific Avenue, Stockton, CA 95211, USA", "state": "California", "state_short": "CA", "longitude": -121.3101096, "latitude": 37.9804693, "city_short": "Stockton", "zip_code": "95211"}, "id": 2527, "title": "University of The Pacific"}, {"city": "Phoenix", "state": "AZ", "location": {"city": "Phoenix", "full_address": "Phoenix, AZ, USA", "state": "Arizona", "state_short": "AZ", "longitude": -112.0740373, "latitude": 33.4483771, "city_short": "Phoenix"}, "id": 2528, "title": "Ottawa University-Phoenix"}, {"city": "Washington", "state": "NC", "location": {"city": "Washington", "full_address": "Beaufort County Community College, Washington, NC 27889, USA", "state": "North Carolina", "state_short": "NC", "longitude": -76.9651052, "latitude": 35.5338196, "city_short": "Washington", "zip_code": "27889"}, "id": 2529, "title": "Beaufort County Community College"}, {"city": "Chicago", "state": "IL", "location": {"city": "Chicago", "full_address": "Chicago State University, 9501 South King Drive, Chicago, IL 60628, USA", "state": "Illinois", "state_short": "IL", "longitude": -87.6112325, "latitude": 41.718485, "city_short": "Chicago", "zip_code": "60628"}, "id": 2530, "title": "Chicago State University"}, {"city": "Denver", "state": "CO", "location": {"city": "Denver", "full_address": "Denver, CO, USA", "state": "Colorado", "state_short": "CO", "longitude": -104.9848593, "latitude": 39.7384357, "city_short": "Denver"}, "id": 2531, "title": "University Of Colorado Hlth Sci Ctr"}, {"city": "Arnold", "state": "MD", "location": {"city": "Arnold", "full_address": "Anne Arundel Community College, 101 College Parkway, Arnold, MD 21012, USA", "state": "Maryland", "state_short": "MD", "longitude": -76.5135634, "latitude": 39.0498687, "city_short": "Arnold", "zip_code": "21012"}, "id": 2532, "title": "Anne Arundel Community College"}, {"city": "Johnstown", "state": "PA", "location": {"city": "Johnstown", "full_address": "University of Pittsburgh Johnstown, 450 Schoolhouse Road, Johnstown, PA 15904, USA", "state": "Pennsylvania", "state_short": "PA", "longitude": -78.8335381, "latitude": 40.2673647, "city_short": "Johnstown", "zip_code": "15904"}, "id": 2533, "title": "University Of Pittsburgh-Johnstown"}, {"city": "Dallas", "state": "NC", "location": {"city": "Dallas", "full_address": "Gaston College, Dallas, NC 28034, USA", "state": "North Carolina", "state_short": "NC", "longitude": -81.1899026, "latitude": 35.3113433, "city_short": "Dallas", "zip_code": "28034"}, "id": 2534, "title": "Gaston College"}, {"city": "Sugar grove", "state": "IL", "location": {"city": "Sugar Grove", "full_address": "Waubonsee Community College, Sugar Grove, IL 60554, USA", "state": "Illinois", "state_short": "IL", "longitude": -88.4584655, "latitude": 41.7952983, "city_short": "Sugar Grove", "zip_code": "60554"}, "id": 2535, "title": "Waubonsee Community College"}, {"city": "El paso", "state": "TX", "location": {"city": "El Paso", "full_address": "El Paso, TX, USA", "state": "Texas", "state_short": "TX", "longitude": -106.4424559, "latitude": 31.7775757, "city_short": "El Paso"}, "id": 2536, "title": "El Paso Community College-Valle Verde"}, {"city": "San diego", "state": "CA", "location": {"city": "San Diego", "full_address": "Alliant International University, 10455 Pomerado Road, San Diego, CA 92131, USA", "state": "California", "state_short": "CA", "longitude": -117.094013, "latitude": 32.896947, "city_short": "San Diego", "zip_code": "92131"}, "id": 2537, "title": "Alliant International University"}, {"city": "Plymouth", "state": "MI", "location": {"city": "Plymouth", "full_address": "Moody Theological Seminary and Graduate School\u2013Michigan, 41550 East Ann Arbor Trail, Plymouth, MI 48170, USA", "state": "Michigan", "state_short": "MI", "longitude": -83.45190339999999, "latitude": 42.3667781, "city_short": "Plymouth", "zip_code": "48170"}, "id": 2538, "title": "Michigan Theological Seminary"}, {"city": "Shreveport", "state": "LA", "location": {"city": "Shreveport", "full_address": "Centenary College of Louisiana, 2911 Centenary Boulevard, Shreveport, LA 71104, USA", "state": "Louisiana", "state_short": "LA", "longitude": -93.73373269999999, "latitude": 32.4838699, "city_short": "Shreveport", "zip_code": "71104"}, "id": 2539, "title": "Centenary College Of Louisiana"}, {"city": "Kalispell", "state": "MT", "location": {"city": "Kalispell", "full_address": "Flathead Valley Community College, 777 Grandview Drive, Kalispell, MT 59901, USA", "state": "Montana", "state_short": "MT", "longitude": -114.3297346, "latitude": 48.2260086, "city_short": "Kalispell", "zip_code": "59901"}, "id": 2540, "title": "Flathead Valley Community College"}, {"city": "Paintsville", "state": "KY", "location": {"city": "Paintsville", "full_address": "Paintsville, KY, USA", "state": "Kentucky", "state_short": "KY", "longitude": -82.8071054, "latitude": 37.8145384, "city_short": "Paintsville"}, "id": 2541, "title": "Big Sandy Cmty/Tech Clg-Mayo"}, {"city": "Denver", "state": "CO", "location": {"city": "Denver", "full_address": "University of Denver, Denver, CO 80208, USA", "state": "Colorado", "state_short": "CO", "longitude": -104.9618965, "latitude": 39.6766174, "city_short": "Denver", "zip_code": "80208"}, "id": 2542, "title": "University of Denver"}, {"city": "Minneapolis", "state": "MN", "location": {"city": "Minneapolis", "full_address": "St Catherine University, 601 25th Avenue South, Minneapolis, MN 55454, USA", "state": "Minnesota", "state_short": "MN", "longitude": -93.2359139, "latitude": 44.9674361, "city_short": "Minneapolis", "zip_code": "55454"}, "id": 2543, "title": "St. Catherine University"}, {"city": "Phoenix", "state": "AZ", "location": {"city": "Phoenix", "full_address": "DeVry University Phoenix, Arizona, 2149 West Dunlap Avenue, Phoenix, AZ 85021, USA", "state": "Arizona", "state_short": "AZ", "longitude": -112.1045121, "latitude": 33.5657069, "city_short": "Phoenix", "zip_code": "85021"}, "id": 2544, "title": "Devry University-Arizona"}, {"city": "Dover", "state": "DE", "location": {"city": "Dover", "full_address": "Wesley College, 120 North State Street, Dover, DE 19901, USA", "state": "Delaware", "state_short": "DE", "longitude": -75.5276093, "latitude": 39.1631149, "city_short": "Dover", "zip_code": "19901"}, "id": 2545, "title": "Wesley College"}, {"city": "Steubenville", "state": "OH", "location": {"city": "Steubenville", "full_address": "Franciscan University of Steubenville, 1235 University Boulevard, Steubenville, OH 43952, USA", "state": "Ohio", "state_short": "OH", "longitude": -80.62352899999999, "latitude": 40.3777654, "city_short": "Steubenville", "zip_code": "43952"}, "id": 2546, "title": "Franciscan University"}, {"city": "Huron", "state": "OH", "location": {"city": "Huron", "full_address": "Huron, OH 44839, USA", "state": "Ohio", "state_short": "OH", "longitude": -82.55517329999999, "latitude": 41.3950489, "city_short": "Huron", "zip_code": "44839"}, "id": 2547, "title": "Bowling Green State University-Firelands"}, {"city": "Chester", "state": "VA", "location": {"city": "Chester", "full_address": "John Tyler Community College - Chester Campus, 13101 Jefferson Davis Highway, Chester, VA 23831, USA", "state": "Virginia", "state_short": "VA", "longitude": -77.40779739999999, "latitude": 37.34660909999999, "city_short": "Chester", "zip_code": "23831"}, "id": 2548, "title": "John Tyler Community College"}, {"city": "Yankton", "state": "SD", "location": {"city": "Yankton", "full_address": "Mount Marty College, 1105 West 8th Street, Yankton, SD 57078, USA", "state": "South Dakota", "state_short": "SD", "longitude": -97.4096443, "latitude": 42.8733702, "city_short": "Yankton", "zip_code": "57078"}, "id": 2549, "title": "Mount Marty College"}, {"city": "Kalamazoo", "state": "MI", "location": {"city": "Kalamazoo Township", "full_address": "Kalamazoo College, 1200 Academy Street, Kalamazoo Township, MI 49006, USA", "state": "Michigan", "state_short": "MI", "longitude": -85.6018965, "latitude": 42.2903036, "city_short": "Kalamazoo Charter Township", "zip_code": "49006"}, "id": 2550, "title": "Kalamazoo College"}, {"city": "Brookline", "state": "MA", "location": {"city": "Brookline", "full_address": "Brookline, MA, USA", "state": "Massachusetts", "state_short": "MA", "longitude": -71.1211635, "latitude": 42.33176419999999, "city_short": "Brookline"}, "id": 2551, "title": "The New Eng Institute Of Art"}, {"city": "Quincy", "state": "MA", "location": {"city": "Quincy", "full_address": "Eastern Nazarene College, 23 East Elm Avenue, Quincy, MA 02170, USA", "state": "Massachusetts", "state_short": "MA", "longitude": -71.01077480000001, "latitude": 42.2713976, "city_short": "Quincy", "zip_code": "02170"}, "id": 2552, "title": "Eastern Nazarene College"}, {"city": "Worcester", "state": "MA", "location": {"city": "Worcester", "full_address": "Clark University, 950 Main Street, Worcester, MA 01610, USA", "state": "Massachusetts", "state_short": "MA", "longitude": -71.82223119999999, "latitude": 42.250386, "city_short": "Worcester", "zip_code": "01610"}, "id": 2553, "title": "Clark University"}, {"city": "Galesburg", "state": "IL", "location": {"city": "Galesburg", "full_address": "Knox College, 2 East South Street, Galesburg, IL 61401, USA", "state": "Illinois", "state_short": "IL", "longitude": -90.3713045, "latitude": 40.9416833, "city_short": "Galesburg", "zip_code": "61401"}, "id": 2554, "title": "Knox College"}, {"city": "Blue mountain", "state": "MS", "location": {"city": "Blue Mountain", "full_address": "Blue Mountain College, 201 West Main Street, Blue Mountain, MS 38610, USA", "state": "Mississippi", "state_short": "MS", "longitude": -89.0281399, "latitude": 34.6710705, "city_short": "Blue Mountain", "zip_code": "38610"}, "id": 2555, "title": "Blue Mountain College"}, {"city": "Pittsburg", "state": "CA", "location": {"city": "Pittsburg", "full_address": "Los Medanos College, 2700 East Leland Road, Pittsburg, CA 94565, USA", "state": "California", "state_short": "CA", "longitude": -121.8607997, "latitude": 38.0053027, "city_short": "Pittsburg", "zip_code": "94565"}, "id": 2556, "title": "Los Medanos College"}, {"city": "Oswego", "state": "NY", "location": {"city": "Oswego", "full_address": "Radiation Oncology Department Suny: Chung Chung T MD, 105 County Route 45A, Oswego, NY 13126, USA", "state": "New York", "state_short": "NY", "longitude": -76.459694, "latitude": 43.394824, "city_short": "Oswego", "zip_code": "13126"}, "id": 2557, "title": "SUNY Oswego"}, {"city": "Saint peter", "state": "MN", "location": {"city": "Saint Peter", "full_address": "Gustavus Adolphus College, 800 West College Avenue, Saint Peter, MN 56082, USA", "state": "Minnesota", "state_short": "MN", "longitude": -93.9706135, "latitude": 44.3240246, "city_short": "St Peter", "zip_code": "56082"}, "id": 2558, "title": "Gustavus Adolphus College"}, {"city": "Asheville", "state": "NC", "location": {"city": "Swannanoa", "full_address": "Warren Wilson College, 701 Warren Wilson Road, Swannanoa, NC 28778, USA", "state": "North Carolina", "state_short": "NC", "longitude": -82.44037399999999, "latitude": 35.612494, "city_short": "Swannanoa", "zip_code": "28778"}, "id": 2559, "title": "Warren Wilson College"}, {"city": "Watertown", "state": "WI", "location": {"city": "Watertown", "full_address": "Watertown, WI, USA", "state": "Wisconsin", "state_short": "WI", "longitude": -88.7289918, "latitude": 43.1947211, "city_short": "Watertown"}, "id": 2560, "title": "Maranatha Baptist Bible College Inc"}, {"city": "Santa ana", "state": "CA", "location": {"city": "Santa Ana", "full_address": "Santa Ana, CA, USA", "state": "California", "state_short": "CA", "longitude": -117.8678338, "latitude": 33.7455731, "city_short": "Santa Ana"}, "id": 2561, "title": "Argosy University-Orange Co"}, {"city": "Long beach", "state": "CA", "location": {"city": "Long Beach", "full_address": "Long Beach City College, 4901 Carson Street, Long Beach, CA 90808, USA", "state": "California", "state_short": "CA", "longitude": -118.1356509, "latitude": 33.8337685, "city_short": "Long Beach", "zip_code": "90808"}, "id": 2562, "title": "Long Beach City College"}, {"city": "Livonia", "state": "MI", "location": {"city": "Livonia", "full_address": "Schoolcraft College, Livonia, MI 48152, USA", "state": "Michigan", "state_short": "MI", "longitude": -83.4312456, "latitude": 42.4214401, "city_short": "Livonia", "zip_code": "48152"}, "id": 2563, "title": "Schoolcraft College"}, {"city": "Marlboro", "state": "VT", "location": {"city": "Marlboro", "full_address": "Marlboro College, 2582 South Road, Marlboro, VT 05344, USA", "state": "Vermont", "state_short": "VT", "longitude": -72.734734, "latitude": 42.838955, "city_short": "Marlboro", "zip_code": "05344"}, "id": 2564, "title": "Marlboro College"}, {"city": "Memphis", "state": "TN", "location": {"city": "Memphis", "full_address": "University of Memphis, 3720 Alumni Avenue, Memphis, TN 38152, USA", "state": "Tennessee", "state_short": "TN", "longitude": -89.9371249, "latitude": 35.1189522, "city_short": "Memphis", "zip_code": "38152"}, "id": 2565, "title": "University of Memphis"}, {"city": "Madison", "state": "IN", "location": {"city": "Anderson", "full_address": "Ivy Tech Community College, 104 West 53rd Street, Anderson, IN 46013, USA", "state": "Indiana", "state_short": "IN", "longitude": -85.6801629, "latitude": 40.0625047, "city_short": "Anderson", "zip_code": "46013"}, "id": 2566, "title": "Ivy Tech Community College-Southeast"}, {"city": "St clairsvle", "state": "OH", "location": {"latitude": 40.4172871, "state": "Ohio", "state_short": "OH", "full_address": "Ohio, USA", "longitude": -82.90712300000001}, "id": 2567, "title": "Belmont Technical College"}, {"city": "Long island city", "state": "NY", "location": {"city": "Long Island City", "full_address": "Teen Academy-LaGuardia Community College/CUNY, 31-10 Thomson Avenue, Long Island City, NY 11101, USA", "state": "New York", "state_short": "NY", "longitude": -73.937873, "latitude": 40.7449904, "city_short": "LIC", "zip_code": "11101"}, "id": 2568, "title": "CUNY Laguardia Community College"}, {"city": "East point", "state": "GA", "location": {"city": "East Point", "full_address": "Atlanta Christian College, 2605 Ben Hill Road, East Point, GA 30344, USA", "state": "Georgia", "state_short": "GA", "longitude": -84.475872, "latitude": 33.6852841, "city_short": "East Point", "zip_code": "30344"}, "id": 2569, "title": "Atlanta Christian College"}, {"city": "Miami", "state": "FL", "location": {"city": "Miami", "full_address": "Florida National University - South Campus, OfficeMax, Miami, FL 33175, USA", "state": "Florida", "state_short": "FL", "longitude": -80.3864605, "latitude": 25.7479512, "city_short": "Miami", "zip_code": "33175"}, "id": 2570, "title": "Florida National College-South"}, {"city": "Salisbury", "state": "MD", "location": {"city": "Salisbury", "full_address": "Salisbury University, 1101 Camden Avenue, Salisbury, MD 21801, USA", "state": "Maryland", "state_short": "MD", "longitude": -75.6058571, "latitude": 38.3444766, "city_short": "Salisbury", "zip_code": "21801"}, "id": 2571, "title": "Salisbury University"}, {"city": "Harrison", "state": "AR", "location": {"city": "Harrison", "full_address": "North Arkansas College, 1515 Pioneer Drive, Harrison, AR 72601, USA", "state": "Arkansas", "state_short": "AR", "longitude": -93.08955759999999, "latitude": 36.22131359999999, "city_short": "Harrison", "zip_code": "72601"}, "id": 2572, "title": "North Arkansas College"}, {"city": "Philadelphia", "state": "PA", "location": {"city": "Philadelphia", "full_address": "Chestnut Hill College, 9601 Germantown Avenue, Philadelphia, PA 19118, USA", "state": "Pennsylvania", "state_short": "PA", "longitude": -75.2282159, "latitude": 40.08624930000001, "city_short": "Philadelphia", "zip_code": "19118"}, "id": 2573, "title": "Chestnut Hill College"}, {"city": "College sta", "state": "TX", "location": {"city": "College Station", "full_address": "The Texas A&M University System Office of Technology Commercialization, Texas A&M University, 800 Raymond Stotzer Parkway #2020, College Station, TX 77845, USA", "state": "Texas", "state_short": "TX", "longitude": -96.3575419, "latitude": 30.6092278, "city_short": "College Station", "zip_code": "77845"}, "id": 2574, "title": "Texas A&M University System Office"}, {"city": "Ann arbor", "state": "MI", "location": {"city": "Ann Arbor", "full_address": "University of Michigan, 500 South State Street, Ann Arbor, MI 48109, USA", "state": "Michigan", "state_short": "MI", "longitude": -83.7382241, "latitude": 42.2780436, "city_short": "Ann Arbor", "zip_code": "48109"}, "id": 2575, "title": "University of Michigan"}, {"city": "Coeur d'alene", "state": "ID", "location": {"city": "Coeur d'Alene", "full_address": "North Idaho College, 1000 West Garden Avenue, Coeur d'Alene, ID 83814, USA", "state": "Idaho", "state_short": "ID", "longitude": -116.7954558, "latitude": 47.6762335, "city_short": "CDA", "zip_code": "83814"}, "id": 2576, "title": "North Idaho College"}, {"city": "Edinboro", "state": "PA", "location": {"city": "Edinboro", "full_address": "Edinboro University, 219 Meadville Street, Edinboro, PA 16444, USA", "state": "Pennsylvania", "state_short": "PA", "longitude": -80.1165104, "latitude": 41.8708711, "city_short": "Edinboro", "zip_code": "16444"}, "id": 2577, "title": "Edinboro University of Pennsylvania"}, {"city": "Bellingham", "state": "WA", "location": {"city": "Bellingham", "full_address": "Whatcom Community College, 237 West Kellogg Road, Bellingham, WA 98226, USA", "state": "Washington", "state_short": "WA", "longitude": -122.4932246, "latitude": 48.794477, "city_short": "Bellingham", "zip_code": "98226"}, "id": 2578, "title": "Whatcom Community College"}, {"city": "Miami", "state": "OK", "location": {"city": "Miami", "full_address": "Northeastern Oklahoma A&M College, 200 I Street Northeast, Miami, OK 74354, USA", "state": "Oklahoma", "state_short": "OK", "longitude": -94.86500799999999, "latitude": 36.8786753, "city_short": "Miami", "zip_code": "74354"}, "id": 2579, "title": "Northeastern Oklahoma A&M College"}, {"city": "Jackson", "state": "MI", "location": {"city": "Jackson", "full_address": "Baker College, 2800 Springport Road, Jackson, MI 49202, USA", "state": "Michigan", "state_short": "MI", "longitude": -84.4515842, "latitude": 42.280245, "city_short": "Jackson", "zip_code": "49202"}, "id": 2580, "title": "Baker College Of Jackson"}, {"city": "Honlolulu", "state": "HI", "location": {"city": "Honolulu", "full_address": "University of Hawaii, 2777 Kalakaua Avenue, Honolulu, HI 96815, USA", "state": "Hawaii", "state_short": "HI", "longitude": -157.8218198, "latitude": 21.2658776, "city_short": "Honolulu", "zip_code": "96815"}, "id": 2581, "title": "University of Hawaii"}, {"city": "Largo", "state": "MD", "location": {"city": "Largo", "full_address": "Prince George's Community College, 301 Largo Road, Largo, MD 20774, USA", "state": "Maryland", "state_short": "MD", "longitude": -76.8248863, "latitude": 38.8894576, "city_short": "Largo", "zip_code": "20774"}, "id": 2582, "title": "Prince Georges Community College"}, {"city": "Media", "state": "PA", "location": {"city": "Media", "full_address": "Delaware County Community College, 901 Media Line Road, Media, PA 19063, USA", "state": "Pennsylvania", "state_short": "PA", "longitude": -75.39285129999999, "latitude": 39.9678273, "city_short": "Media", "zip_code": "19063"}, "id": 2583, "title": "Delaware County Community College"}, {"city": "Baltimore", "state": "MD", "location": {"city": "Baltimore", "full_address": "University of Baltimore, 1420 North Charles Street, Baltimore, MD 21201, USA", "state": "Maryland", "state_short": "MD", "longitude": -76.617082, "latitude": 39.305754, "city_short": "Baltimore", "zip_code": "21201"}, "id": 2584, "title": "University of Baltimore"}, {"city": "Honolulu", "state": "HI", "location": {"city": "Honolulu", "full_address": "Kapi'olani Community College, 4303 Diamond Head Road, Honolulu, HI 96816, USA", "state": "Hawaii", "state_short": "HI", "longitude": -157.800778, "latitude": 21.2707021, "city_short": "Honolulu", "zip_code": "96816"}, "id": 2585, "title": "Kapiolani Community College"}, {"city": "Nashville", "state": "TN", "location": {"city": "Nashville", "full_address": "National College of Business & Technology, 1638 Bell Road, Nashville, TN 37211, USA", "state": "Tennessee", "state_short": "TN", "longitude": -86.70112689999999, "latitude": 36.0449119, "city_short": "Nashville", "zip_code": "37211"}, "id": 2586, "title": "National College Of Business And Technology-Nashville"}, {"city": "Denver", "state": "CO", "location": {"city": "Denver", "full_address": "University of Colorado Denver, 1201 Larimer Street, Denver, CO 80204, USA", "state": "Colorado", "state_short": "CO", "longitude": -105.0042307, "latitude": 39.7435008, "city_short": "Denver", "zip_code": "80204"}, "id": 2587, "title": "University of Colorado  Denver"}, {"city": "Brainerd", "state": "MN", "location": {"city": "Brainerd", "full_address": "Central Lakes College, 501 West College Drive, Brainerd, MN 56401, USA", "state": "Minnesota", "state_short": "MN", "longitude": -94.21641679999999, "latitude": 46.3459495, "city_short": "Brainerd", "zip_code": "56401"}, "id": 2588, "title": "Central Lakes College-Brainerd"}, {"city": "Dallas", "state": "TX", "location": {"city": "Dallas", "full_address": "Dallas Christian College, 2700 Christian Parkway, Dallas, TX 75234, USA", "state": "Texas", "state_short": "TX", "longitude": -96.8874687, "latitude": 32.9137551, "city_short": "Dallas", "zip_code": "75234"}, "id": 2589, "title": "Dallas Christian College"}, {"city": "Poplar", "state": "MT", "location": {"city": "Poplar", "full_address": "Fort Peck Community College, 605 Indian Avenue, Poplar, MT 59255, USA", "state": "Montana", "state_short": "MT", "longitude": -105.1927764, "latitude": 48.1136817, "city_short": "Poplar", "zip_code": "59255"}, "id": 2590, "title": "Fort Peck Community College"}, {"city": "Colby", "state": "KS", "location": {"city": "Colby", "full_address": "Colby Community College, 1255 South Range Avenue, Colby, KS 67701, USA", "state": "Kansas", "state_short": "KS", "longitude": -101.05407, "latitude": 39.376407, "city_short": "Colby", "zip_code": "67701"}, "id": 2591, "title": "Colby Community College"}, {"city": "Boston", "state": "MA", "location": {"city": "Boston", "full_address": "Massachusetts College of Pharmacy and Health Sciences, 179 Longwood Avenue, Boston, MA 02115, USA", "state": "Massachusetts", "state_short": "MA", "longitude": -71.1010781, "latitude": 42.3369838, "city_short": "Boston", "zip_code": "02115"}, "id": 2592, "title": "Massachusetts College Of Pharmacy & Health Science"}, {"city": "Tacoma", "state": "WA", "location": {"city": "Tacoma", "full_address": "Pacific Lutheran University, 12180 Park Avenue South, Tacoma, WA 98447, USA", "state": "Washington", "state_short": "WA", "longitude": -122.4417973, "latitude": 47.1464936, "city_short": "Tacoma", "zip_code": "98447"}, "id": 2593, "title": "Pacific Lutheran University"}, {"city": "Boston", "state": "MA", "location": {"city": "Boston", "full_address": "Fisher College, 118 Beacon Street, Boston, MA 02116, USA", "state": "Massachusetts", "state_short": "MA", "longitude": -71.07417, "latitude": 42.35531, "city_short": "Boston", "zip_code": "02116"}, "id": 2594, "title": "Fisher College"}, {"city": "Fairfield", "state": "CT", "location": {"city": "Fairfield", "full_address": "Sacred Heart University, 5151 Park Avenue, Fairfield, CT 06825, USA", "state": "Connecticut", "state_short": "CT", "longitude": -73.242137, "latitude": 41.221728, "city_short": "Fairfield", "zip_code": "06825"}, "id": 2595, "title": "Sacred Heart University"}, {"city": "Willimantic", "state": "CT", "location": {"city": "Willimantic", "full_address": "Eastern Connecticut State University, 83 Windham Street, Willimantic, CT 06226, USA", "state": "Connecticut", "state_short": "CT", "longitude": -72.2166961, "latitude": 41.7195293, "city_short": "Willimantic", "zip_code": "06226"}, "id": 2596, "title": "Eastern Connecticut State University"}, {"city": "Fairfield", "state": "AL", "location": {"city": "Fairfield", "full_address": "Miles College, 5500 Myron Massey Boulevard, Fairfield, AL 35064, USA", "state": "Alabama", "state_short": "AL", "longitude": -86.90826799999999, "latitude": 33.480831, "city_short": "Fairfield", "zip_code": "35064"}, "id": 2597, "title": "Miles College"}, {"city": "Owensboro", "state": "KY", "location": {"city": "Owensboro", "full_address": "Owensboro Community & Technical College, 4800 New Hartford Road, Owensboro, KY 42303, USA", "state": "Kentucky", "state_short": "KY", "longitude": -87.08365289999999, "latitude": 37.7183878, "city_short": "Owensboro", "zip_code": "42303"}, "id": 2598, "title": "Owensboro Community & Technical College"}, {"city": "Shepherdstown", "state": "WV", "location": {"city": "Shepherdstown", "full_address": "Shepherd University, 301 North King Street, Shepherdstown, WV 25443, USA", "state": "West Virginia", "state_short": "WV", "longitude": -77.80837609999999, "latitude": 39.4363678, "city_short": "Shepherdstown", "zip_code": "25443"}, "id": 2599, "title": "Shepherd University"}, {"city": "Baltimore", "state": "MD", "location": {"city": "Baltimore", "full_address": "University of Maryland, Baltimore County, 1000 Hilltop Circle, Baltimore, MD 21250, USA", "state": "Maryland", "state_short": "MD", "longitude": -76.7107494, "latitude": 39.2561164, "city_short": "Baltimore", "zip_code": "21250"}, "id": 2600, "title": "University of Maryland Baltimore Cty"}, {"city": "Houston", "state": "TX", "location": {"city": "Houston", "full_address": "Mall Drive, Houston, TX 77092, USA", "state": "Texas", "state_short": "TX", "longitude": -95.45805089999999, "latitude": 29.8333772, "city_short": "Houston", "zip_code": "77092"}, "id": 2601, "title": "HCC North East-No Line Mall CT"}, {"city": "Garden city", "state": "NY", "location": {"city": "Garden City", "full_address": "Adelphi University, 1 South Avenue, Garden City, NY 11530, USA", "state": "New York", "state_short": "NY", "longitude": -73.6506244, "latitude": 40.7220719, "city_short": "Garden City", "zip_code": "11530"}, "id": 2602, "title": "Adelphi University"}, {"city": "Florence", "state": "SC", "location": {"city": "Florence", "full_address": "\"Florence-Darlington Technical College, 2715 West Lucas Street, Florence, SC 29501, USA", "state": "South Carolina", "state_short": "SC", "longitude": -79.81602420000002, "latitude": 34.2443775, "city_short": "Florence", "zip_code": "29501"}, "id": 2603, "title": "Florence-Darlington Technical College"}, {"city": "Moorhead", "state": "MN", "location": {"city": "Moorhead", "full_address": "Minnesota State University Moorhead, 1104 7th Avenue South, Moorhead, MN 56563, USA", "state": "Minnesota", "state_short": "MN", "longitude": -96.7566954, "latitude": 46.8670181, "city_short": "Moorhead", "zip_code": "56563"}, "id": 2604, "title": "Minnesota State University Moorhead"}, {"city": "York", "state": "NE", "location": {"city": "York", "full_address": "York College, 1125 East 8th Street, York, NE 68467, USA", "state": "Nebraska", "state_short": "NE", "longitude": -97.579797, "latitude": 40.8687207, "city_short": "York", "zip_code": "68467"}, "id": 2605, "title": "York College"}, {"city": "Lake jackson", "state": "TX", "location": {"city": "Lake Jackson", "full_address": "Brazosport College, 500 College Drive, Lake Jackson, TX 77566, USA", "state": "Texas", "state_short": "TX", "longitude": -95.41012289999999, "latitude": 29.048207, "city_short": "Lake Jackson", "zip_code": "77566"}, "id": 2606, "title": "Brazosport College"}, {"city": "Wheeling", "state": "WV", "location": {"city": "Wheeling", "full_address": "West Virginia Northern Community College, 1704 Market Street, Wheeling, WV 26003, USA", "state": "West Virginia", "state_short": "WV", "longitude": -80.7213549, "latitude": 40.0633777, "city_short": "Wheeling", "zip_code": "26003"}, "id": 2607, "title": "West Virginia Northern Community College"}, {"city": "Mequon", "state": "WI", "location": {"city": "Mequon", "full_address": "Concordia University Wisconsin, 12800 North Lake Shore Drive, Mequon, WI 53097, USA", "state": "Wisconsin", "state_short": "WI", "longitude": -87.91533919999999, "latitude": 43.2533939, "city_short": "Mequon", "zip_code": "53097"}, "id": 2608, "title": "Concordia University-Wisconsin"}, {"city": "Springfield", "state": "MO", "location": {"city": "Springfield", "full_address": "Ozarks Technical Community College, 1001 East Chestnut Expressway, Springfield, MO 65802, USA", "state": "Missouri", "state_short": "MO", "longitude": -93.2826063, "latitude": 37.2151998, "city_short": "Springfield", "zip_code": "65802"}, "id": 2609, "title": "Ozarks Technical Community College"}, {"city": "Albemarle", "state": "NC", "location": {"city": "Albemarle", "full_address": "Stanly Community College, 141 College Drive, Albemarle, NC 28001, USA", "state": "North Carolina", "state_short": "NC", "longitude": -80.2345519, "latitude": 35.338324, "city_short": "Albemarle", "zip_code": "28001"}, "id": 2610, "title": "Stanly Community College"}, {"city": "Winona", "state": "MN", "location": {"city": "Winona", "full_address": "Saint Mary's University of Minnesota, 700 Terrace Heights, Winona, MN 55987, USA", "state": "Minnesota", "state_short": "MN", "longitude": -91.6959279, "latitude": 44.0436653, "city_short": "Winona", "zip_code": "55987"}, "id": 2611, "title": "Saint Mary's University of Minnesota"}, {"city": "Augusta", "state": "GA", "location": {"city": "Augusta", "full_address": "Paine College, 1235 15th Street, Augusta, GA 30901, USA", "state": "Georgia", "state_short": "GA", "longitude": -81.99316209999999, "latitude": 33.4695135, "city_short": "Augusta", "zip_code": "30901"}, "id": 2612, "title": "Paine College"}, {"city": "Davidson", "state": "NC", "location": {"city": "Davidson", "full_address": "Davidson College, 405 North Main Street, Davidson, NC 28035, USA", "state": "North Carolina", "state_short": "NC", "longitude": -80.847465, "latitude": 35.502229, "city_short": "Davidson", "zip_code": "28035"}, "id": 2613, "title": "Davidson College"}, {"city": "Skokie", "state": "IL", "location": {"city": "Skokie", "full_address": "Skokie, IL, USA", "state": "Illinois", "state_short": "IL", "longitude": -87.7416246, "latitude": 42.0324025, "city_short": "Skokie"}, "id": 2614, "title": "Zarem Golde Ort Technical Institute"}, {"city": "Pine city", "state": "MN", "location": {"city": "Pine City", "full_address": "Pine County Extension Services, 809 Main Street South, Pine City, MN 55063, USA", "state": "Minnesota", "state_short": "MN", "longitude": -92.97070889999999, "latitude": 45.8206192, "city_short": "Pine City", "zip_code": "55063"}, "id": 2615, "title": "Pine Technical College"}, {"city": "Laurinburg", "state": "NC", "location": {"city": "Laurinburg", "full_address": "Singletary Riding Center, 9167 Hasty Road, Laurinburg, NC 28352, USA", "state": "North Carolina", "state_short": "NC", "longitude": -79.4809109, "latitude": 34.714602, "city_short": "Laurinburg", "zip_code": "28352"}, "id": 2616, "title": "St Andrews Presbyterian College"}, {"city": "Lubbock", "state": "TX", "location": {"city": "Lubbock", "full_address": "Texas Tech University, Lubbock, TX 79409, USA", "state": "Texas", "state_short": "TX", "longitude": -101.8782822, "latitude": 33.5842591, "city_short": "Lubbock", "zip_code": "79409"}, "id": 2617, "title": "Texas Tech University"}, {"city": "Warner", "state": "OK", "location": {"city": "Warner", "full_address": "Connors State College, 700 College Road, Warner, OK 74469, USA", "state": "Oklahoma", "state_short": "OK", "longitude": -95.3202506, "latitude": 35.4920813, "city_short": "Warner", "zip_code": "74469"}, "id": 2618, "title": "Connors State Clg-Warner"}, {"city": "Wichita", "state": "KS", "location": {"city": "Wichita", "full_address": "Newman University, 3100 McCormick Street, Wichita, KS 67213, USA", "state": "Kansas", "state_short": "KS", "longitude": -97.3800199, "latitude": 37.6721518, "city_short": "Wichita", "zip_code": "67213"}, "id": 2619, "title": "Newman University"}, {"city": "Huntingdon", "state": "PA", "location": {"city": "Huntingdon", "full_address": "Juniata College, 1700 Moore Street, Huntingdon, PA 16652, USA", "state": "Pennsylvania", "state_short": "PA", "longitude": -78.0166127, "latitude": 40.4994634, "city_short": "Huntingdon", "zip_code": "16652"}, "id": 2620, "title": "Juniata College"}, {"city": "Omaha", "state": "NE", "location": {"city": "Omaha", "full_address": "Clarkson College, 101 South 42nd Street, Omaha, NE 68131, USA", "state": "Nebraska", "state_short": "NE", "longitude": -95.9754768, "latitude": 41.2593825, "city_short": "Omaha", "zip_code": "68131"}, "id": 2621, "title": "Clarkson College"}, {"city": "Poultney", "state": "VT", "location": {"city": "Poultney", "full_address": "Green Mountain College, 1 Brennan Circle, Poultney, VT 05764, USA", "state": "Vermont", "state_short": "VT", "longitude": -73.2442058, "latitude": 43.5167448, "city_short": "Poultney", "zip_code": "05764"}, "id": 2622, "title": "Green Mountain College"}, {"city": "Kilgore", "state": "TX", "location": {"city": "Kilgore", "full_address": "Kilgore College, 1100 Broadway Boulevard, Kilgore, TX 75662, USA", "state": "Texas", "state_short": "TX", "longitude": -94.8712128, "latitude": 32.3773876, "city_short": "Kilgore", "zip_code": "75662"}, "id": 2623, "title": "Kilgore College"}, {"city": "Cleveland", "state": "TN", "location": {"city": "Cleveland", "full_address": "Lee University, 1120 Ocoee Street North, Cleveland, TN 37311, USA", "state": "Tennessee", "state_short": "TN", "longitude": -84.86851999999999, "latitude": 35.1682311, "city_short": "Cleveland", "zip_code": "37311"}, "id": 2624, "title": "Lee University"}, {"city": "Marietta", "state": "GA", "location": {"city": "Marietta", "full_address": "Life University, 1269 Barclay Circle, Marietta, GA 30060, USA", "state": "Georgia", "state_short": "GA", "longitude": -84.514505, "latitude": 33.9308334, "city_short": "Marietta", "zip_code": "30060"}, "id": 2625, "title": "Life University"}, {"city": "Norwalk", "state": "CA", "location": {"city": "Norwalk", "full_address": "Cerritos College, 11110 Alondra Boulevard, Norwalk, CA 90650, USA", "state": "California", "state_short": "CA", "longitude": -118.0972522, "latitude": 33.8856918, "city_short": "Norwalk", "zip_code": "90650"}, "id": 2626, "title": "Cerritos College"}, {"city": "Claremont", "state": "CA", "location": {"city": "Claremont", "full_address": "Pitzer College, The Claremont Colleges, 1050 North Mills Avenue, Claremont, CA 91711, USA", "state": "California", "state_short": "CA", "longitude": -117.7047392, "latitude": 34.1046694, "city_short": "Claremont", "zip_code": "91711"}, "id": 2627, "title": "Pitzer College"}, {"city": "Plymouth", "state": "WI", "location": {"city": "Plymouth", "full_address": "Lakeland College - Sheboygan Center, w3718 South Drive, Plymouth, WI 53073, USA", "state": "Wisconsin", "state_short": "WI", "longitude": -87.884225, "latitude": 43.8421743, "city_short": "Plymouth", "zip_code": "53073"}, "id": 2628, "title": "Lakeland College"}, {"city": "Talladega", "state": "AL", "location": {"city": "Talladega", "full_address": "Talladega College, 627 Battle Street West, Talladega, AL 35160, USA", "state": "Alabama", "state_short": "AL", "longitude": -86.113468, "latitude": 33.4344131, "city_short": "Talladega", "zip_code": "35160"}, "id": 2629, "title": "Talladega College"}, {"city": "Bethlehem", "state": "PA", "location": {"city": "Bethlehem", "full_address": "Northampton Community College, 3835 Green Pond Road, Bethlehem, PA 18020, USA", "state": "Pennsylvania", "state_short": "PA", "longitude": -75.32363629999999, "latitude": 40.6731073, "city_short": "Bethlehem", "zip_code": "18020"}, "id": 2630, "title": "Northampton Community College-Bethlehem"}, {"city": "Stockton", "state": "CA", "location": {"city": "Stockton", "full_address": "Heald College Stockton, 1605 East March Lane, Stockton, CA 95210, USA", "state": "California", "state_short": "CA", "longitude": -121.2880334, "latitude": 38.003578, "city_short": "Stockton", "zip_code": "95210"}, "id": 2631, "title": "Heald College-Stockton"}, {"city": "Harrison", "state": "MI", "location": {"city": "Harrison", "full_address": "Mid Michigan Community College, 1375 South Clare Avenue, Harrison, MI 48625, USA", "state": "Michigan", "state_short": "MI", "longitude": -84.7635439, "latitude": 43.9697521, "city_short": "Harrison", "zip_code": "48625"}, "id": 2632, "title": "Mid Michigan Community College"}, {"city": "Somerset", "state": "KY", "location": {"city": "Somerset", "full_address": "Somerset Community College, 808 Monticello Street, Somerset, KY 42501, USA", "state": "Kentucky", "state_short": "KY", "longitude": -84.615708, "latitude": 37.0602609, "city_short": "Somerset", "zip_code": "42501"}, "id": 2633, "title": "Somerset Community College"}, {"city": "Dallas", "state": "TX", "location": {"city": "Dallas", "full_address": "El Centro College, 801 Main Street, Dallas, TX 75202, USA", "state": "Texas", "state_short": "TX", "longitude": -96.8053341, "latitude": 32.7798502, "city_short": "Dallas", "zip_code": "75202"}, "id": 2634, "title": "El Centro College"}, {"city": "Texas city", "state": "TX", "location": {"city": "Texas City", "full_address": "College of the Mainland, 1200 North Amburn Road, Texas City, TX 77591, USA", "state": "Texas", "state_short": "TX", "longitude": -95.00088199999999, "latitude": 29.395552, "city_short": "Texas City", "zip_code": "77591"}, "id": 2635, "title": "College Of The Mainland"}, {"city": "Winston salem", "state": "NC", "location": {"city": "Winston-Salem", "full_address": "Salem Academy and College, 601 South Church Street, Winston-Salem, NC 27101, USA", "state": "North Carolina", "state_short": "NC", "longitude": -80.2401509, "latitude": 36.08726, "city_short": "Winston-Salem", "zip_code": "27101"}, "id": 2636, "title": "Salem College"}, {"city": "San jose", "state": "CA", "location": {"city": "San Jose", "full_address": "Palmer College of Chiropractic, West Campus, 90 East Tasman Drive, San Jose, CA 95134, USA", "state": "California", "state_short": "CA", "longitude": -121.9417817, "latitude": 37.4099583, "city_short": "San Jose", "zip_code": "95134"}, "id": 2637, "title": "Palmer College Of Chiropractic-West"}, {"city": "Brunswick", "state": "ME", "location": {"city": "Brunswick", "full_address": "Bowdoin College, Brunswick, ME 04011, USA", "state": "Maine", "state_short": "ME", "longitude": -69.96379329999999, "latitude": 43.9067324, "city_short": "Brunswick", "zip_code": "04011"}, "id": 2638, "title": "Bowdoin College"}, {"city": "Fort worth", "state": "TX", "location": {"city": "Fort Worth", "full_address": "Texas Christian University, 2800 South University Drive, Fort Worth, TX 76129, USA", "state": "Texas", "state_short": "TX", "longitude": -97.3637066, "latitude": 32.7078079, "city_short": "Fort Worth", "zip_code": "76129"}, "id": 2639, "title": "Texas Christian University"}, {"city": "Bristol", "state": "TN", "location": {"city": "Bristol", "full_address": "King University, 1350 King College Road, Bristol, TN 37620, USA", "state": "Tennessee", "state_short": "TN", "longitude": -82.1584137, "latitude": 36.5874234, "city_short": "Bristol", "zip_code": "37620"}, "id": 2640, "title": "King College"}, {"city": "Baltimore", "state": "MD", "location": {"city": "Towson", "full_address": "Goucher College, 1021 Dulaney Valley Road, Towson, MD 21204, USA", "state": "Maryland", "state_short": "MD", "longitude": -76.5965617, "latitude": 39.4087187, "city_short": "Towson", "zip_code": "21204"}, "id": 2641, "title": "Goucher College"}, {"city": "Ames", "state": "IA", "location": {"city": "Ames", "full_address": "Iowa State University, Ames, IA 50011, USA", "state": "Iowa", "state_short": "IA", "longitude": -93.6464654, "latitude": 42.0266187, "city_short": "Ames", "zip_code": "50011"}, "id": 2642, "title": "Iowa State University"}, {"city": "Bozeman", "state": "MT", "location": {"city": "Bozeman", "full_address": "Montana State University, Bozeman, MT 59717, USA", "state": "Montana", "state_short": "MT", "longitude": -111.049354, "latitude": 45.667565, "city_short": "Bozeman", "zip_code": "59717"}, "id": 2643, "title": "Montana State University"}, {"city": "Abingdon", "state": "VA", "location": {"city": "Abingdon", "full_address": "Virginia Highlands Community College, 100 VHCC Drive, Abingdon, VA 24210, USA", "state": "Virginia", "state_short": "VA", "longitude": -82.00119939999999, "latitude": 36.6974242, "city_short": "Abingdon", "zip_code": "24210"}, "id": 2644, "title": "Virginia Highlands Community College"}, {"city": "Lancaster", "state": "OH", "location": {"city": "Lancaster", "full_address": "Ohio University Lancaster Branch, Ohio University, 1570 Granville Pike, Lancaster, OH 43130, USA", "state": "Ohio", "state_short": "OH", "longitude": -82.5863937, "latitude": 39.738476, "city_short": "Lancaster", "zip_code": "43130"}, "id": 2645, "title": "Ohio University-Lancaster Campus"}, {"city": "Hazleton", "state": "PA", "location": {"city": "Hazleton", "full_address": "Penn State Hazleton, 76 University Drive, Hazleton, PA 18202, USA", "state": "Pennsylvania", "state_short": "PA", "longitude": -76.0290471, "latitude": 40.9840089, "city_short": "Hazleton", "zip_code": "18202"}, "id": 2646, "title": "Pennsylvania State University-Penn State Hazleton"}, {"city": "Dobson", "state": "NC", "location": {"city": "Dobson", "full_address": "Surry Community College, 630 South Main Street, Dobson, NC 27017, USA", "state": "North Carolina", "state_short": "NC", "longitude": -80.7200557, "latitude": 36.3844171, "city_short": "Dobson", "zip_code": "27017"}, "id": 2647, "title": "Surry Community College"}, {"city": "Old westbury", "state": "NY", "location": {"city": "Old Westbury", "full_address": "SUNY College At Old Westbury, Old Westbury, NY 11568, USA", "state": "New York", "state_short": "NY", "longitude": -73.5781915, "latitude": 40.7803957, "city_short": "Old Westbury", "zip_code": "11568"}, "id": 2648, "title": "SUNY College at Old Westbury"}, {"city": "Normal", "state": "AL", "location": {"city": "Huntsville", "full_address": "Alabama A & M College, Alabama Agricultural and Mechanical University, Alabama A&m University, Huntsville, AL 35811, USA", "state": "Alabama", "state_short": "AL", "longitude": -86.5720583, "latitude": 34.783052, "city_short": "Huntsville", "zip_code": "35811"}, "id": 2649, "title": "Alabama A & M University"}, {"city": "Cobleskill", "state": "NY", "location": {"city": "Cobleskill", "full_address": "SUNY Cobleskill, 106 Suffolk Circle, Cobleskill, NY 12043, USA", "state": "New York", "state_short": "NY", "longitude": -74.4979866, "latitude": 42.6727523, "city_short": "Cobleskill", "zip_code": "12043"}, "id": 2650, "title": "SUNY Cobleskill"}, {"city": "Cumberland", "state": "MD", "location": {"city": "Cumberland", "full_address": "Cumberland, MD, USA", "state": "Maryland", "state_short": "MD", "longitude": -78.7625185, "latitude": 39.6528654, "city_short": "Cumberland"}, "id": 2651, "title": "Allegany College of Maryland-Cumbe"}, {"city": "Omaha", "state": "NE", "location": {"city": "Omaha", "full_address": "Grace University, 1311 South 9th Street, Omaha, NE 68108, USA", "state": "Nebraska", "state_short": "NE", "longitude": -95.9280927, "latitude": 41.2441543, "city_short": "Omaha", "zip_code": "68108"}, "id": 2652, "title": "Grace University"}, {"city": "Macomb", "state": "IL", "location": {"city": "Macomb", "full_address": "Western Illinois University, 1 University Cir, Macomb, IL 61455, USA", "state": "Illinois", "state_short": "IL", "longitude": -90.68390459999999, "latitude": 40.47013159999999, "city_short": "Macomb", "zip_code": "61455"}, "id": 2653, "title": "Western Illinois University"}, {"city": "Eugene", "state": "OR", "location": {"city": "Eugene", "full_address": "Northwest Christian University, 828 East 11th Avenue, Eugene, OR 97401, USA", "state": "Oregon", "state_short": "OR", "longitude": -123.079555, "latitude": 44.0481466, "city_short": "Eugene", "zip_code": "97401"}, "id": 2654, "title": "Northwest Christian College"}, {"city": "Plano", "state": "TX", "location": {"city": "Plano", "full_address": "Collin College - Spring Creek Campus, 2800 East Spring Creek Parkway, Plano, TX 75074, USA", "state": "Texas", "state_short": "TX", "longitude": -96.6765458, "latitude": 33.0506654, "city_short": "Plano", "zip_code": "75074"}, "id": 2655, "title": "Collin Co Community College District"}, {"city": "Devils lake", "state": "ND", "location": {"city": "Devils Lake", "full_address": "Lake Region State College, 1801 College Drive, Devils Lake, ND 58301, USA", "state": "North Dakota", "state_short": "ND", "longitude": -98.86596, "latitude": 48.1266433, "city_short": "Devils Lake", "zip_code": "58301"}, "id": 2656, "title": "Lake Region State College"}, {"city": "Terre haute", "state": "IN", "location": {"city": "Terre Haute", "full_address": "Indiana State University, 200 North 7th Street, Terre Haute, IN 47809, USA", "state": "Indiana", "state_short": "IN", "longitude": -87.4080662, "latitude": 39.4712412, "city_short": "Terre Haute", "zip_code": "47809"}, "id": 2657, "title": "Indiana State University"}, {"city": "Durant", "state": "OK", "location": {"city": "Durant", "full_address": "Southeastern Oklahoma Driving, 2813 West University Boulevard, Durant, OK 74701, USA", "state": "Oklahoma", "state_short": "OK", "longitude": -96.4048119, "latitude": 34.0049018, "city_short": "Durant", "zip_code": "74701"}, "id": 2658, "title": "Southeastern Oklahoma St University"}, {"city": "Irvine", "state": "CA", "location": {"city": "Irvine", "full_address": "Concordia University Irvine, 1530 Concordia, Irvine, CA 92612, USA", "state": "California", "state_short": "CA", "longitude": -117.810409, "latitude": 33.65461, "city_short": "Irvine", "zip_code": "92612"}, "id": 2659, "title": "Concordia University"}, {"city": "Colorado spgs", "state": "CO", "location": {"city": "Colorado Springs", "full_address": "Nazarene Bible College, 1111 Academy Park Loop, Colorado Springs, CO 80910, USA", "state": "Colorado", "state_short": "CO", "longitude": -104.7513647, "latitude": 38.8158124, "city_short": "Colorado Springs", "zip_code": "80910"}, "id": 2660, "title": "Nazarene Bible College"}, {"city": "Tarboro", "state": "NC", "location": {"city": "Tarboro", "full_address": "Edgecombe Community College, 2009 West Wilson Street, Tarboro, NC 27886, USA", "state": "North Carolina", "state_short": "NC", "longitude": -77.572197, "latitude": 35.879087, "city_short": "Tarboro", "zip_code": "27886"}, "id": 2661, "title": "Edgecombe Community College"}, {"city": "Baltimore", "state": "MD", "location": {"city": "Baltimore", "full_address": "Maryland Institute College of Art, 1401 West Mount Royal Avenue, Baltimore, MD 21217, USA", "state": "Maryland", "state_short": "MD", "longitude": -76.62205949999999, "latitude": 39.3090841, "city_short": "Baltimore", "zip_code": "21217"}, "id": 2662, "title": "Maryland Institute College Of Art"}, {"city": "San antonio", "state": "TX", "location": {"city": "San Antonio", "full_address": "University of Texas at San Antonio, 1 UTSA Circle, San Antonio, TX 78249, USA", "state": "Texas", "state_short": "TX", "longitude": -98.62245929999999, "latitude": 29.5828572, "city_short": "San Antonio", "zip_code": "78249"}, "id": 2663, "title": "University of Texas"}, {"city": "Spruce pine", "state": "NC", "location": {"city": "Spruce Pine", "full_address": "Mayland Community College, 200 Mayland Lane, Spruce Pine, NC 28777, USA", "state": "North Carolina", "state_short": "NC", "longitude": -82.016913, "latitude": 35.9340337, "city_short": "Spruce Pine", "zip_code": "28777"}, "id": 2664, "title": "Mayland Community College"}, {"city": "Langhorne", "state": "PA", "location": {"city": "Langhorne", "full_address": "Langhorne, PA, USA", "state": "Pennsylvania", "state_short": "PA", "longitude": -74.92266649999999, "latitude": 40.1745538, "city_short": "Langhorne"}, "id": 2665, "title": "Philadelphia Biblical University-Langhorne"}, {"city": "Brockport", "state": "NY", "location": {"city": "Brockport", "full_address": "Brockport, NY 14420, USA", "state": "New York", "state_short": "NY", "longitude": -77.9391797, "latitude": 43.2136713, "city_short": "Brockport", "zip_code": "14420"}, "id": 2666, "title": "SUNY Brockport"}, {"city": "Potsdam", "state": "NY", "location": {"city": "Potsdam", "full_address": "Clarkson University, 8 Clarkson Avenue, Potsdam, NY 13699, USA", "state": "New York", "state_short": "NY", "longitude": -74.999495, "latitude": 44.6627128, "city_short": "Potsdam", "zip_code": "13699"}, "id": 2667, "title": "Clarkson University"}, {"city": "Lafayette", "state": "LA", "location": {"city": "Lafayette", "full_address": "Lafayette, LA, USA", "state": "Louisiana", "state_short": "LA", "longitude": -92.0198427, "latitude": 30.2240897, "city_short": "Lafayette"}, "id": 2668, "title": "South Louisiana Community College-Lafay"}, {"city": "Nashville", "state": "TN", "location": {"city": "Nashville", "full_address": "Meharry Medical College, 1005 Doctor D.B. Todd Junior Boulevard, Nashville, TN 37208, USA", "state": "Tennessee", "state_short": "TN", "longitude": -86.80564059999999, "latitude": 36.166958, "city_short": "Nashville", "zip_code": "37208"}, "id": 2669, "title": "Meharry Medical College"}, {"city": "Lowell", "state": "MA", "location": {"city": "Worcester", "full_address": "Lowell Street & Lowell Court, Worcester, MA 01603, USA", "state": "Massachusetts", "state_short": "MA", "longitude": -71.8266338, "latitude": 42.2471945, "city_short": "Worcester", "zip_code": "01603"}, "id": 2670, "title": "University of Mass at Lowell"}, {"city": "Lagrange", "state": "GA", "location": {"city": "LaGrange", "full_address": "LaGrange College, 601 Broad Street, LaGrange, GA 30240, USA", "state": "Georgia", "state_short": "GA", "longitude": -85.0460786, "latitude": 33.03356640000001, "city_short": "LaGrange", "zip_code": "30240"}, "id": 2671, "title": "Lagrange College"}, {"city": "Chicopee", "state": "MA", "location": {"city": "Chicopee", "full_address": "College of Our Lady of the Elms, 291 Springfield Street, Chicopee, MA 01013, USA", "state": "Massachusetts", "state_short": "MA", "longitude": -72.60107180000001, "latitude": 42.1418736, "city_short": "Chicopee", "zip_code": "01013"}, "id": 2672, "title": "Elms College"}, {"city": "Grand island", "state": "NE", "location": {"city": "Grand Island", "full_address": "Central Community College - Grand Island Campus, Grand Island, NE 68802, USA", "state": "Nebraska", "state_short": "NE", "longitude": -98.3709389, "latitude": 40.8890619, "city_short": "Grand Island", "zip_code": "68802"}, "id": 2673, "title": "Central Community College-Grand Island"}, {"city": "Merrillville", "state": "IN", "location": {"city": "Merrillville", "full_address": "Merrillville, IN, USA", "state": "Indiana", "state_short": "IN", "longitude": -87.33281389999999, "latitude": 41.4828144, "city_short": "Merrillville"}, "id": 2674, "title": "Kaplan College-Merrillville"}, {"city": "Saint petersburg", "state": "FL", "location": {"city": "Saint Petersburg", "full_address": "Eckerd College, 4200 54th Avenue South, Saint Petersburg, FL 33711, USA", "state": "Florida", "state_short": "FL", "longitude": -82.68754179999999, "latitude": 27.7138215, "city_short": "St Petersburg", "zip_code": "33711"}, "id": 2675, "title": "Eckerd College"}, {"city": "New orleans", "state": "LA", "location": {"city": "New Orleans", "full_address": "Loyola University New Orleans, 6363 Saint Charles Avenue, New Orleans, LA 70118, USA", "state": "Louisiana", "state_short": "LA", "longitude": -90.121721, "latitude": 29.93414, "city_short": "New Orleans", "zip_code": "70118"}, "id": 2676, "title": "Loyola University-New Orleans"}, {"city": "College station", "state": "TX", "location": {"city": "College Station", "full_address": "Texas A&M University, 401 Joe Routt Boulevard, College Station, TX 77843, USA", "state": "Texas", "state_short": "TX", "longitude": -96.3423158, "latitude": 30.6149186, "city_short": "College Station", "zip_code": "77843"}, "id": 2677, "title": "Texas A & M University"}, {"city": "Springfield", "state": "MO", "location": {"city": "Springfield", "full_address": "Evangel University, 1111 North Glenstone Avenue, Springfield, MO 65802, USA", "state": "Missouri", "state_short": "MO", "longitude": -93.2649229, "latitude": 37.221936, "city_short": "Springfield", "zip_code": "65802"}, "id": 2678, "title": "Evangel University"}, {"city": "Wooster", "state": "OH", "location": {"city": "Wooster", "full_address": "College of Wooster: Admissions, 847 College Avenue, Wooster, OH 44691, USA", "state": "Ohio", "state_short": "OH", "longitude": -81.93583, "latitude": 40.810544, "city_short": "Wooster", "zip_code": "44691"}, "id": 2679, "title": "College of Wooster"}, {"city": "Weldon", "state": "NC", "location": {"city": "Weldon", "full_address": "Halifax Community College, 100 College Drive, Weldon, NC 27890, USA", "state": "North Carolina", "state_short": "NC", "longitude": -77.6181741, "latitude": 36.4283989, "city_short": "Weldon", "zip_code": "27890"}, "id": 2680, "title": "Halifax Community College"}, {"city": "Boston", "state": "MA", "location": {"city": "Boston", "full_address": "Wheelock College, 200 Riverway, Boston, MA 02215, USA", "state": "Massachusetts", "state_short": "MA", "longitude": -71.1060067, "latitude": 42.3421679, "city_short": "Boston", "zip_code": "02215"}, "id": 2681, "title": "Wheelock College"}, {"city": "Hampton", "state": "VA", "location": {"city": "Hampton", "full_address": "Hampton University, 100 East Queen Street, Hampton, VA 23668, USA", "state": "Virginia", "state_short": "VA", "longitude": -76.3362312, "latitude": 37.0216015, "city_short": "Hampton", "zip_code": "23668"}, "id": 2682, "title": "Hampton University"}, {"city": "Greensboro", "state": "NC", "location": {"city": "Greensboro", "full_address": "Weatherspoon Art Museum - The University of North Carolina at Greensboro, 500 Tate Street, Greensboro, NC 27412, USA", "state": "North Carolina", "state_short": "NC", "longitude": -79.80571660000001, "latitude": 36.0661432, "city_short": "Greensboro", "zip_code": "27412"}, "id": 2683, "title": "UNC Greensboro"}, {"city": "Corsicana", "state": "TX", "location": {"city": "Corsicana", "full_address": "Navarro College, 3200 West 7th Avenue, Corsicana, TX 75110, USA", "state": "Texas", "state_short": "TX", "longitude": -96.49816899999999, "latitude": 32.07528, "city_short": "Corsicana", "zip_code": "75110"}, "id": 2684, "title": "Navarro College"}, {"city": "North dartmouth", "state": "MA", "location": {"city": "Dartmouth", "full_address": "Univ of Mass at Dartmouth, 285 Old Westport Road, Dartmouth, MA 02747, USA", "state": "Massachusetts", "state_short": "MA", "longitude": -71.0063874, "latitude": 41.6294204, "city_short": "Dartmouth", "zip_code": "02747"}, "id": 2685, "title": "University of Mass - Dartmouth"}, {"city": "Ewing", "state": "NJ", "location": {"city": "Ewing Township", "full_address": "The College of New Jersey, 2000 Pennington Road, Ewing Township, NJ 08618, USA", "state": "New Jersey", "state_short": "NJ", "longitude": -74.78090999999999, "latitude": 40.2688352, "city_short": "Ewing Township", "zip_code": "08618"}, "id": 2686, "title": "The College of New Jersey"}, {"city": "Charlottesville", "state": "VA", "location": {"city": "Charlottesville", "full_address": "University of Virginia, Charlottesville, VA, USA", "state": "Virginia", "state_short": "VA", "longitude": -78.5079772, "latitude": 38.0335529, "city_short": "Charlottesville"}, "id": 2687, "title": "University of Virginia"}, {"city": "Billings", "state": "MT", "location": {"city": "Billings", "full_address": "Montana State University Billings, 1500 University Dr, Billings, MT 59101, USA", "state": "Montana", "state_short": "MT", "longitude": -108.522204, "latitude": 45.796901, "city_short": "Billings", "zip_code": "59101"}, "id": 2688, "title": "Montana State University-Billings"}, {"city": "Salinas", "state": "CA", "location": {"city": "Salinas", "full_address": "Hartnell College, 411 Central Avenue, Salinas, CA 93901, USA", "state": "California", "state_short": "CA", "longitude": -121.6670033, "latitude": 36.6748411, "city_short": "Salinas", "zip_code": "93901"}, "id": 2689, "title": "Hartnell College"}, {"city": "New york", "state": "NY", "location": {"city": "New York", "full_address": "Fashion Institute of Technology, 227 West 27th Street, New York, NY 10001, USA", "state": "New York", "state_short": "NY", "longitude": -73.9939981, "latitude": 40.7469106, "city_short": "NY", "zip_code": "10001"}, "id": 2690, "title": "Fashion Institute of Technology"}, {"city": "Tampa", "state": "FL", "location": {"city": "Tampa", "full_address": "Argosy University Tampa, 1403 North Howard Avenue, Tampa, FL 33607, USA", "state": "Florida", "state_short": "FL", "longitude": -82.4825324, "latitude": 27.9552, "city_short": "Tampa", "zip_code": "33607"}, "id": 2691, "title": "Argosy University-Tampa"}, {"city": "Lake city", "state": "FL", "location": {"city": "Lake City", "full_address": "Lake City, FL, USA", "state": "Florida", "state_short": "FL", "longitude": -82.6392899, "latitude": 30.1896756, "city_short": "Lake City"}, "id": 2692, "title": "Lake City Community College"}, {"city": "Honolulu", "state": "HI", "location": {"city": "Honolulu", "full_address": "Hawai'i Pacific University, 1164 Bishop Street, Honolulu, HI 96813, USA", "state": "Hawaii", "state_short": "HI", "longitude": -157.859399, "latitude": 21.310272, "city_short": "Honolulu", "zip_code": "96813"}, "id": 2693, "title": "Hawaii Pacific University"}, {"city": "Alma", "state": "MI", "location": {"city": "Alma", "full_address": "Alma College, 614 West Superior Street, Alma, MI 48801, USA", "state": "Michigan", "state_short": "MI", "longitude": -84.6699398, "latitude": 43.379011, "city_short": "Alma", "zip_code": "48801"}, "id": 2694, "title": "Alma College"}, {"city": "Senatobia", "state": "MS", "location": {"city": "Senatobia", "full_address": "Northwest Mississippi Community College, 4975 U.S. 51, Senatobia, MS 38668, USA", "state": "Mississippi", "state_short": "MS", "longitude": -89.9738496, "latitude": 34.6238324, "city_short": "Senatobia", "zip_code": "38668"}, "id": 2695, "title": "Nw Mississippi Community College"}, {"city": "Selma", "state": "AL", "location": {"city": "Selma", "full_address": "Wallace State Community College, George C Wallace Community College, 3000 Earl Goodwin Parkway, Selma, AL 36703, USA", "state": "Alabama", "state_short": "AL", "longitude": -87.0144309, "latitude": 32.4392973, "city_short": "Selma", "zip_code": "36703"}, "id": 2696, "title": "George C Wallace State Community College-Selma"}, {"city": "Berkeley", "state": "CA", "location": {"city": "Berkeley", "full_address": "Berkeley City College, 2050 Center Street, Berkeley, CA 94704, USA", "state": "California", "state_short": "CA", "longitude": -122.2695968, "latitude": 37.8698804, "city_short": "Berkeley", "zip_code": "94704"}, "id": 2697, "title": "Berkeley City College"}, {"city": "Fort myers", "state": "FL", "location": {"city": "Fort Myers", "full_address": "Southwest Florida College - Fort Myers, 1685 Medical Lane, Fort Myers, FL 33907, USA", "state": "Florida", "state_short": "FL", "longitude": -81.877641, "latitude": 26.596068, "city_short": "Fort Myers", "zip_code": "33907"}, "id": 2698, "title": "Southwest Florida College"}, {"city": "Spartanburg", "state": "SC", "location": {"city": "Spartanburg", "full_address": "Converse College, 580 East Main Street, Spartanburg, SC 29302, USA", "state": "South Carolina", "state_short": "SC", "longitude": -81.91869559999999, "latitude": 34.9561776, "city_short": "Spartanburg", "zip_code": "29302"}, "id": 2699, "title": "Converse College"}, {"city": "Bradford", "state": "PA", "location": {"city": "Bradford", "full_address": "University of Pittsburgh, University of Pittsburgh - Bradford Campus, 300 Campus Drive, Bradford, PA 16701, USA", "state": "Pennsylvania", "state_short": "PA", "longitude": -78.67367510000001, "latitude": 41.9433463, "city_short": "Bradford", "zip_code": "16701"}, "id": 2700, "title": "University Of Pittsburgh-Bradford"}, {"city": "Milwaukee", "state": "WI", "location": {"city": "Milwaukee", "full_address": "DeVry University Milwaukee, Wisconsin, 411 East Wisconsin Avenue #300, Milwaukee, WI 53202, USA", "state": "Wisconsin", "state_short": "WI", "longitude": -87.9060569, "latitude": 43.0383213, "city_short": "Milwaukee", "zip_code": "53202"}, "id": 2701, "title": "Devry University-Wisconsin"}, {"city": "Toledo", "state": "OH", "location": {"city": "Toledo", "full_address": "The University of Toledo, 2801 West Bancroft Street, Toledo, OH 43606, USA", "state": "Ohio", "state_short": "OH", "longitude": -83.6126979, "latitude": 41.6621416, "city_short": "Toledo", "zip_code": "43606"}, "id": 2702, "title": "University of Toledo"}, {"city": "Boston", "state": "MA", "location": {"city": "Boston", "full_address": "Northeastern University, 360 Huntington Avenue, Boston, MA 02115, USA", "state": "Massachusetts", "state_short": "MA", "longitude": -71.0891717, "latitude": 42.3398067, "city_short": "Boston", "zip_code": "02115"}, "id": 2703, "title": "Northeastern University"}, {"city": "Lawrenceville", "state": "GA", "location": {"city": "Lawrenceville", "full_address": "Georgia Gwinnett College, 1000 University Center Lane, Lawrenceville, GA 30043, USA", "state": "Georgia", "state_short": "GA", "longitude": -84.00223299999999, "latitude": 33.9803305, "city_short": "Lawrenceville", "zip_code": "30043"}, "id": 2704, "title": "Georgia Gwinnett College"}, {"city": "Carson", "state": "CA", "location": {"city": "Carson", "full_address": "Cal State Dominguez Hills, California State University Dominguez Hills, Carson, CA 90747, USA", "state": "California", "state_short": "CA", "longitude": -118.25499, "latitude": 33.866936, "city_short": "Carson", "zip_code": "90747"}, "id": 2705, "title": "CSU Dominguez Hills"}, {"city": "Hempstead", "state": "NY", "location": {"city": "Hempstead", "full_address": "Hofstra University, 1000 Fulton Avenue, Hempstead, NY 11550, USA", "state": "New York", "state_short": "NY", "longitude": -73.5974371, "latitude": 40.7178645, "city_short": "Hempstead", "zip_code": "11550"}, "id": 2706, "title": "Hofstra University"}, {"city": "Emporia", "state": "KS", "location": {"city": "Emporia", "full_address": "Emporia State University, Emporia, KS 66801, USA", "state": "Kansas", "state_short": "KS", "longitude": -96.18007829999999, "latitude": 38.4138215, "city_short": "Emporia", "zip_code": "66801"}, "id": 2707, "title": "Emporia State University"}, {"city": "Brownsville", "state": "TX", "location": {"city": "Brownsville", "full_address": "Brownsville, TX, USA", "state": "Texas", "state_short": "TX", "longitude": -97.4974838, "latitude": 25.9017472, "city_short": "Brownsville"}, "id": 2708, "title": "University of Texas - BrownsvilleSTC"}, {"city": "Carson city", "state": "NV", "location": {"city": "Carson City", "full_address": "Western Nevada College, 2201 West College Parkway, Carson City, NV 89703, USA", "state": "Nevada", "state_short": "NV", "longitude": -119.7907015, "latitude": 39.1856652, "city_short": "Carson City", "zip_code": "89703"}, "id": 2709, "title": "Western Nevada Community College"}, {"city": "Springfield", "state": "MO", "location": {"city": "Springfield", "full_address": "Drury University, 900 North Benton Avenue, Springfield, MO 65802, USA", "state": "Missouri", "state_short": "MO", "longitude": -93.28480479999999, "latitude": 37.21835950000001, "city_short": "Springfield", "zip_code": "65802"}, "id": 2710, "title": "Drury University"}, {"city": "Salem", "state": "OR", "location": {"city": "Salem", "full_address": "Corban University, 5000 Deer Park Drive Southeast, Salem, OR 97317, USA", "state": "Oregon", "state_short": "OR", "longitude": -122.958939, "latitude": 44.883043, "city_short": "Salem", "zip_code": "97317"}, "id": 2711, "title": "Corban College"}, {"city": "Rapid city", "state": "SD", "location": {"city": "Rapid City", "full_address": "Western Dakota Technical Institute, 800 Mickelson Drive, Rapid City, SD 57703, USA", "state": "South Dakota", "state_short": "SD", "longitude": -103.1789711, "latitude": 44.0766092, "city_short": "Rapid City", "zip_code": "57703"}, "id": 2712, "title": "Western Dakota Technical Institute"}, {"city": "Salt lake cty", "state": "UT", "location": {"latitude": 39.3209801, "state": "Utah", "state_short": "UT", "full_address": "Utah, USA", "longitude": -111.0937311}, "id": 2713, "title": "Salt Lake Cmty Clg-South City"}, {"city": "Bowling green", "state": "KY", "location": {"city": "Bowling Green", "full_address": "Western Kentucky University, 1906 College Heights Boulevard, Bowling Green, KY 42101, USA", "state": "Kentucky", "state_short": "KY", "longitude": -86.45548579999999, "latitude": 36.9854583, "city_short": "Bowling Green", "zip_code": "42101"}, "id": 2714, "title": "Western Kentucky University"}, {"city": "New york", "state": "NY", "location": {"city": "New York", "full_address": "Baruch College, 17 Lexington Avenue, New York, NY 10010, USA", "state": "New York", "state_short": "NY", "longitude": -73.9846788, "latitude": 40.7391574, "city_short": "NY", "zip_code": "10010"}, "id": 2715, "title": "Baruch College"}, {"city": "Hattiesburg", "state": "MS", "location": {"city": "Hattiesburg", "full_address": "William Carey University, 498 Tuscan Avenue, Hattiesburg, MS 39401, USA", "state": "Mississippi", "state_short": "MS", "longitude": -89.2919512, "latitude": 31.3045999, "city_short": "Hattiesburg", "zip_code": "39401"}, "id": 2716, "title": "William Carey University-Hattiesburg"}, {"city": "Chicago", "state": "IL", "location": {"city": "Chicago", "full_address": "DePaul University, DePaul University Lincoln Park Campus Welcome Center, 2320 North Kenmore Avenue, Chicago, IL 60614, USA", "state": "Illinois", "state_short": "IL", "longitude": -87.6550784, "latitude": 41.9239994, "city_short": "Chicago", "zip_code": "60614"}, "id": 2717, "title": "Depaul University - Lincoln Park"}, {"city": "Allentown", "state": "PA", "location": {"city": "Allentown", "full_address": "Cedar Crest College, 100 College Drive, Allentown, PA 18104, USA", "state": "Pennsylvania", "state_short": "PA", "longitude": -75.5196631, "latitude": 40.5859377, "city_short": "Allentown", "zip_code": "18104"}, "id": 2718, "title": "Cedar Crest College"}, {"city": "Hamlet", "state": "NC", "location": {"city": "Hamlet", "full_address": "Richmond Community College, 1042 West Hamlet Avenue, Hamlet, NC 28345, USA", "state": "North Carolina", "state_short": "NC", "longitude": -79.7101017, "latitude": 34.9032022, "city_short": "Hamlet", "zip_code": "28345"}, "id": 2719, "title": "Richmond Community College"}, {"city": "Monroe", "state": "LA", "location": {"city": "Monroe", "full_address": "The University of Louisiana at Monroe, 700 University Avenue, Monroe, LA 71209, USA", "state": "Louisiana", "state_short": "LA", "longitude": -92.0724303, "latitude": 32.5287009, "city_short": "Monroe", "zip_code": "71209"}, "id": 2720, "title": "University Of Louisiana-Monroe"}, {"city": "Itta bena", "state": "MS", "location": {"city": "Itta Bena", "full_address": "Mississippi Valley State University, Mississippi Valley State University, 14000 Highway 82 West, Itta Bena, MS 38941, USA", "state": "Mississippi", "state_short": "MS", "longitude": -90.34303460000001, "latitude": 33.5121088, "city_short": "Itta Bena", "zip_code": "38941"}, "id": 2721, "title": "Mississippi Valley State University"}, {"city": "Jefferson city", "state": "TN", "location": {"city": "Jefferson City", "full_address": "Carson-Newman University, 1646 Russell Avenue, Jefferson City, TN 37760, USA", "state": "Tennessee", "state_short": "TN", "longitude": -83.4903576, "latitude": 36.1223623, "city_short": "Jefferson City", "zip_code": "37760"}, "id": 2722, "title": "Carson-Newman College"}, {"city": "Pittsburgh", "state": "PA", "location": {"city": "Pittsburgh", "full_address": "Community College of Allegheny, 808 Ridge Avenue, Pittsburgh, PA 15212, USA", "state": "Pennsylvania", "state_short": "PA", "longitude": -80.0131717, "latitude": 40.4497459, "city_short": "Pittsburgh", "zip_code": "15212"}, "id": 2723, "title": "Community College of Allegheny-Alleghen"}, {"city": "Lebanon", "state": "IL", "location": {"city": "Lebanon", "full_address": "McKendree University, 701 College Road, Lebanon, IL 62254, USA", "state": "Illinois", "state_short": "IL", "longitude": -89.8154883, "latitude": 38.6088277, "city_short": "Lebanon", "zip_code": "62254"}, "id": 2724, "title": "Mckendree College"}, {"city": "Owensboro", "state": "KY", "location": {"city": "Owensboro", "full_address": "Kentucky Wesleyan College, 3000 Frederica Street, Owensboro, KY 42301, USA", "state": "Kentucky", "state_short": "KY", "longitude": -87.1201839, "latitude": 37.7435478, "city_short": "Owensboro", "zip_code": "42301"}, "id": 2725, "title": "Kentucky Wesleyan College"}, {"city": "Springfield", "state": "OH", "location": {"city": "Springfield", "full_address": "Clark State Community College, 570 East Leffel Lane, Springfield, OH 45505, USA", "state": "Ohio", "state_short": "OH", "longitude": -83.79823510000001, "latitude": 39.8964542, "city_short": "Springfield", "zip_code": "45505"}, "id": 2726, "title": "Clark State Community College"}, {"city": "Athens", "state": "GA", "location": {"city": "Athens", "full_address": "Athens Technical College, 800 U.S. 29, Athens, GA 30601, USA", "state": "Georgia", "state_short": "GA", "longitude": -83.33992219999999, "latitude": 33.9892531, "city_short": "Athens", "zip_code": "30601"}, "id": 2727, "title": "Athens Technical College"}, {"city": "Cedar city", "state": "UT", "location": {"city": "Cedar City", "full_address": "Southern Utah University, 351 West Center Street, Cedar City, UT 84720, USA", "state": "Utah", "state_short": "UT", "longitude": -113.0671663, "latitude": 37.6771396, "city_short": "Cedar City", "zip_code": "84720"}, "id": 2728, "title": "Southern Utah University"}, {"city": "Buffalo", "state": "NY", "location": {"city": "Buffalo", "full_address": "University at Buffalo, Buffalo, NY, USA", "state": "New York", "state_short": "NY", "longitude": -78.7889697, "latitude": 43.0008093, "city_short": "Buffalo"}, "id": 2729, "title": "University at Buffalo"}, {"city": "Weatherford", "state": "OK", "location": {"city": "Weatherford", "full_address": "Southwestern Oklahoma State University Athletics, 100 East Campus Drive, Weatherford, OK 73096, USA", "state": "Oklahoma", "state_short": "OK", "longitude": -98.7077699, "latitude": 35.5352734, "city_short": "Weatherford", "zip_code": "73096"}, "id": 2730, "title": "Southwestern Oklahoma St University"}, {"city": "North platte", "state": "NE", "location": {"city": "North Platte", "full_address": "Mid Plains Community College, 601 West State Farm Road, North Platte, NE 69101, USA", "state": "Nebraska", "state_short": "NE", "longitude": -100.7745248, "latitude": 41.0903241, "city_short": "North Platte", "zip_code": "69101"}, "id": 2731, "title": "Mid-Plains Community College"}, {"city": "Chicago heights", "state": "IL", "location": {"city": "Chicago Heights", "full_address": "Prairie State College, 202 South Halsted Street, Chicago Heights, IL 60411, USA", "state": "Illinois", "state_short": "IL", "longitude": -87.63824439999999, "latitude": 41.5236235, "city_short": "Chicago Heights", "zip_code": "60411"}, "id": 2732, "title": "Prairie State College"}, {"city": "Decatur", "state": "GA", "location": {"city": "Decatur", "full_address": "Agnes Scott College, 141 East College Avenue, Decatur, GA 30030, USA", "state": "Georgia", "state_short": "GA", "longitude": -84.2943655, "latitude": 33.7674176, "city_short": "Decatur", "zip_code": "30030"}, "id": 2733, "title": "Agnes Scott College"}, {"city": "Wadley", "state": "AL", "location": {"city": "Wadley", "full_address": "Wadley, AL 36276, USA", "state": "Alabama", "state_short": "AL", "longitude": -85.5697369, "latitude": 33.12275, "city_short": "Wadley", "zip_code": "36276"}, "id": 2734, "title": "So Union State Community College-Wadley"}, {"city": "Tacoma", "state": "WA", "location": {"city": "Tacoma", "full_address": "University of Puget Sound, 1500 North Warner Street, Tacoma, WA 98416, USA", "state": "Washington", "state_short": "WA", "longitude": -122.4816819, "latitude": 47.2620315, "city_short": "Tacoma", "zip_code": "98416"}, "id": 2735, "title": "University of Puget Sound"}, {"city": "Hudson", "state": "NC", "location": {"city": "Hudson", "full_address": "Caldwell Community College and Technical Institute, 2855 Hickory Boulevard, Hudson, NC 28638, USA", "state": "North Carolina", "state_short": "NC", "longitude": -81.4838898, "latitude": 35.8545538, "city_short": "Hudson", "zip_code": "28638"}, "id": 2736, "title": "Caldwell Community College And Technical Institute"}, {"city": "Claremont", "state": "CA", "location": {"city": "Claremont", "full_address": "Claremont Graduate University, 150 East 10th Street, Claremont, CA 91711, USA", "state": "California", "state_short": "CA", "longitude": -117.7138718, "latitude": 34.1038236, "city_short": "Claremont", "zip_code": "91711"}, "id": 2737, "title": "Claremont Graduate University"}, {"city": "Baltimore", "state": "MD", "location": {"city": "Baltimore", "full_address": "Notre Dame of Maryland University-University Academic Building, 4701 North Charles Street, Baltimore, MD 21210, USA", "state": "Maryland", "state_short": "MD", "longitude": -76.62008999999999, "latitude": 39.3514866, "city_short": "Baltimore", "zip_code": "21210"}, "id": 2738, "title": "College of Notre Dame of Md"}, {"city": "Gettysburg", "state": "PA", "location": {"city": "Gettysburg", "full_address": "Gettysburg College, 300 North Washington Street, Gettysburg, PA 17325, USA", "state": "Pennsylvania", "state_short": "PA", "longitude": -77.23723079999999, "latitude": 39.835958, "city_short": "Gettysburg", "zip_code": "17325"}, "id": 2739, "title": "Gettysburg College"}, {"city": "Sumter", "state": "SC", "location": {"city": "Sumter", "full_address": "Morris College, 100 West College Street, Sumter, SC 29150, USA", "state": "South Carolina", "state_short": "SC", "longitude": -80.347003, "latitude": 33.938031, "city_short": "Sumter", "zip_code": "29150"}, "id": 2740, "title": "Morris College"}, {"city": "Clarion", "state": "PA", "location": {"city": "Clarion", "full_address": "Clarion University, 840 Wood Street, Clarion, PA 16214, USA", "state": "Pennsylvania", "state_short": "PA", "longitude": -79.3789371, "latitude": 41.208392, "city_short": "Clarion", "zip_code": "16214"}, "id": 2741, "title": "Clarion University of Pennsylvania"}, {"city": "Montgomery", "state": "AL", "location": {"city": "Montgomery", "full_address": "Troy University, 231 Montgomery Street, Montgomery, AL 36104, USA", "state": "Alabama", "state_short": "AL", "longitude": -86.3109153, "latitude": 32.3763045, "city_short": "Montgomery", "zip_code": "36104"}, "id": 2742, "title": "Troy University - Montgomery"}, {"city": "Tallulah", "state": "LA", "location": {"city": "Tallulah", "full_address": "Tallulah, LA 71282, USA", "state": "Louisiana", "state_short": "LA", "longitude": -91.1867771, "latitude": 32.4084765, "city_short": "Tallulah", "zip_code": "71282"}, "id": 2743, "title": "Louisiana Technical College-Tallulah Campus"}, {"city": "Goldsboro", "state": "NC", "location": {"city": "Goldsboro", "full_address": "Wayne Community College, 3000 Wayne Memorial Drive, Goldsboro, NC 27534, USA", "state": "North Carolina", "state_short": "NC", "longitude": -77.94576520000001, "latitude": 35.4029845, "city_short": "Goldsboro", "zip_code": "27534"}, "id": 2744, "title": "Wayne Community College"}, {"city": "Tallahassee", "state": "FL", "location": {"city": "Tallahassee", "full_address": "Tallahassee Community College, 444 Appleyard Drive, Tallahassee, FL 32304, USA", "state": "Florida", "state_short": "FL", "longitude": -84.3398792, "latitude": 30.4421713, "city_short": "Tallahassee", "zip_code": "32304"}, "id": 2745, "title": "Tallahassee Community College"}, {"city": "New town", "state": "ND", "location": {"city": "New Town", "full_address": "Fort Berthold Community College, 220 8th Avenue East, New Town, ND 58763, USA", "state": "North Dakota", "state_short": "ND", "longitude": -102.4731946, "latitude": 47.9832506, "city_short": "New Town", "zip_code": "58763"}, "id": 2746, "title": "Fort Berthold Community College"}, {"city": "Council bluffs", "state": "IA", "location": {"city": "Council Bluffs", "full_address": "Iowa Western Community College, 2700 College Road, Council Bluffs, IA 51503, USA", "state": "Iowa", "state_short": "IA", "longitude": -95.801108, "latitude": 41.272829, "city_short": "Council Bluffs", "zip_code": "51503"}, "id": 2747, "title": "Iowa Western Community College"}, {"city": "Appleton", "state": "WI", "location": {"city": "Appleton", "full_address": "Appleton, WI, USA", "state": "Wisconsin", "state_short": "WI", "longitude": -88.41538469999999, "latitude": 44.2619309, "city_short": "Appleton"}, "id": 2748, "title": "Fox Valley Tech College-Appleton"}, {"city": "Americus", "state": "GA", "location": {"city": "Americus", "full_address": "Georgia Southwestern State University, 800 GSW State Univeristy Drive, Americus, GA 31709, USA", "state": "Georgia", "state_short": "GA", "longitude": -84.21750809999999, "latitude": 32.0560379, "city_short": "Americus", "zip_code": "31709"}, "id": 2749, "title": "Georgia Southwestern State University"}, {"city": "Pomona", "state": "CA", "location": {"city": "Pomona", "full_address": "DeVry University Pomona, California, 901 Corporate Center Drive, Pomona, CA 91768, USA", "state": "California", "state_short": "CA", "longitude": -117.803697, "latitude": 34.063021, "city_short": "Pomona", "zip_code": "91768"}, "id": 2750, "title": "Devry University-California"}, {"city": "Petersburg", "state": "VA", "location": {"city": "Petersburg", "full_address": "Virginia State University, Petersburg, VA 23806, USA", "state": "Virginia", "state_short": "VA", "longitude": -77.4199931, "latitude": 37.2380253, "city_short": "Petersburg", "zip_code": "23806"}, "id": 2751, "title": "Virginia State University"}]